$MXPGN,00FF00,280B,0002000005049913*19
$GPGGA,130013.000,2254.75728,S,04309.54280,W,1,12,0.70,1.57,M,-5.60,M,,*71
$MXPGN,00FF00,280B,0002000005049913*19
$HCHDG,280.0,0.0,E,23.3,W*68
$AGRSA,0.14,A,,V*4A
$HCHDG,280.0,0.0,E,23.3,W*68
$MXPGN,01F803,281C,000000000000C801*1E
$GPHDT,256.65,T*07
$MXPGN,01F803,281C,000000000000DC02*61
$TIROT,1.29,A*01
$GPGSV,2,1,08,02,12,095,35,10,66,254,49,15,12,134,00,16,29,254,43*7F
$ERRPM,E,0,572.00,,A*5E
$MXPGN,00FF8C,6808,FFF1065DACB89F41*1F
$MXPGN,01F205,2872,00000AAB00000100*6C
$GPGGA,130014.000,2254.75705,S,04309.54283,W,1,12,0.70,1.24,M,-5.60,M,,*7E
$MXPGN,01F804,281C,000000CE89C17809*10
$GPHDT,256.62,T*00
$HCHDG,279.9,0.0,E,23.3,W*67
$MXPGN,01F205,2872,00000AAB00000100*6C
$MXPGN,01FF0D,780B,FF03000098900580*6E
$MXPGN,01F205,2872,00000AAB00000100*6C
$PSMDSTAT,R,3318,25,7,1,0,0*6E
$VDVBW,0.00,,A,,,A,,A,,A*4F
$MXPGN,01F804,281C,00000065CDC15011*10
$ERRPM,E,0,540.00,,A*5F
$TIROT,0.89,A*0A
$MXPGN,01F803,281C,0000000002575011*61
$TIROT,0.89,A*0A
$GPGGA,130015.000,2254.75688,S,04309.54280,W,1,12,0.70,1.24,M,-5.60,M,,*78
$MXPGN,01F803,281C,0000000000007813*69
$TIROT,0.89,A*0A
$ERRPM,E,0,582.00,,A*51
$GPZDA,130015.280,14,02,2023,,*5E
$GPHDT,256.52,T*03
$MXPGN,01F205,2872,00000AAB00000100*6C
$MXPGN,01FF1A,680B,FF022B849F410580*64
$MXPGN,01FE10,2872,0000000000000000*6C
$TIROT,0.29,A*00
$PSMDSTAT,R,4777,25,10,9,0,0*5A
$TIROT,0.29,A*00
$GPGGA,130016.000,2254.75667,S,04309.54288,W,1,12,0.70,1.17,M,-5.60,M,,*72
$MXPGN,01F804,281C,000000CFA7C1781D*18
$TIROT,0.19,A*03
$MXPGN,01F803,281C,0000000000008C1E*6B
$AGRSA,0.05,A,,V*4A
$GPGSV,3,3,12,66,53,139,36,81,45,146,35,67,63,357,44,68,13,340,39*7B
$MXPGN,01FE10,2872,0000000000000000*6C
!AIVDM,1,1,,A,1:U=<5wP00trH?9jq@lqw?vP2<2V,0*61
$HCHDG,279.7,0.0,E,23.3,W*69
$MXPGN,01F803,281C,0000000000005025*66
$MXPGN,01FE10,2872,0000000000000000*6C
$MXPGN,00FF8C,6808,FFF1065DACB89F41*1F
$MXPGN,01F804,281C,000000763DC15025*65
$GPGGA,130017.000,2254.75648,S,04309.54306,W,1,12,0.70,1.44,M,-5.60,M,,*7F
$MXPGN,01F804,281C,000000763DC16426*61
$GPGGA,130017.500,2254.75319,S,04309.54240,W,1,08,2.09,2.68,M,-5.00,M,,*74
$GPVTG,52.68,T,,M,0.00,N,0.00,K,A*04
$MXPGN,00FF3C,3808,8000F9FE00009F41*1D
$TIROT,0.19,A*03
$MXPGN,01FF2C,7808,FFFFFFFF9F411700*6B
$MXPGN,00FF16,7808,FF0000002B0A9F41*1B
$AGRSA,0.09,A,,V*46
$TIROT,0.39,A*01
$MXPGN,00FF00,280B,0002000005049913*19
$MXPGN,00FF19,7808,0000000602009F41*11
$MXPGN,01F205,2872,00000AAB00000100*6C
$HCHDG,279.7,0.0,E,23.3,W*69
$MXPGN,01FE10,2872,0000000000000000*6C
$MXPGN,01F205,2872,00000AAB00000100*6C
$GPVTG,235.40,T,,M,0.03,N,0.05,K,A*3B
$MXPGN,01F804,281C,0000002DFDC11434*67
$GPGSV,3,1,12,02,13,095,24,10,66,255,42,16,30,255,41,18,39,133,28*7C
$MXPGN,01FF2C,7808,FFFF7FFFFFFF7F21*14
$MXPGN,00FF3D,6808,7FFFFF0DFFFF9F41*6E
$MXPGN,00FF3D,6808,FFFFFF0CFFFF9F41*18
$ERRPM,E,0,580.00,,A*53
$HCHDG,279.6,0.0,E,23.3,W*68
$MXPGN,01F803,281C,000000000000DC3E*15
$MXPGN,01F803,281C,000000000000003F*11
$MXPGN,01FA06,681C,7700AC00C83F0FC0*15
$GPGLL,2254.75319,S,04309.54249,W,130019.500,A,A*51
$TIROT,0.09,A*02
$MXPGN,01F804,281C,0000009C9DC11440*17
$GPGSA,A,3,02,10,16,18,23,26,29,32,66,81,67,68,1.30,1.10,1.10*04
$AGRSA,0.05,A,,V*4A
$MXPGN,00FF3D,6808,7FFFFF0DFFFF9F41*6E
$HCHDG,279.7,0.0,E,23.3,W*69
$MXPGN,01FE10,2872,0000000000000000*6C
$VDVBW,0.00,,A,,,A,,A,,A*4F
$ERRPM,E,0,585.00,,A*56
$AGRSA,0.00,A,,V*4F
$GPGSV,2,2,08,18,39,133,36,23,56,166,45,26,30,302,41,27,26,215,00*70
$MXPGN,01F205,2872,00000AAB00000100*6C
$GPHDT,256.35,T*02
$MXPGN,01F803,281C,000000000000144A*14
$ERRPM,E,0,565.00,,A*58
$ERRPM,E,0,577.00,,A*5B
$GPGLL,2254.75359,S,04309.54219,W,,A,A*41
$HCHDG,279.7,0.0,E,23.3,W*69
$MXPGN,01FE10,2872,0000000000000000*6C
$MXPGN,01FF0D,780B,FF03000098900560*60
!AIVDO,1,1,,,B:UOH3P00?>Vt1Lf>c2SkwbUoP06,0*3A
$PSMDSTAT,R,3339,25,9,1,0,0*63
$MXPGN,01FA06,681C,FFFFFFFFFF01A702*69
$GPVTG,263.16,T,,M,0.01,N,0.01,K,A*3D
$ERRPM,E,0,585.00,,A*56
$HCHDG,279.7,0.0,E,23.3,W*69
$GPGGA,130022.000,2254.75648,S,04309.54285,W,1,12,0.70,0.98,M,-5.60,M,,*73
$MXPGN,01F804,281C,000000BB56C16458*1D
$HCHDG,279.7,0.0,E,23.3,W*69
$GPGLL,2254.75359,S,04309.54219,W,,A,A*41
$ERRPM,E,0,585.00,,A*56
$MXPGN,01F803,281C,0000000000009F5B*6C
$MXPGN,01FF0D,780B,FF03000098900580*6E
$MXPGN,01F205,2872,00000AAB00000100*6C
$GPGSV,2,2,08,18,39,133,36,23,56,166,45,26,30,302,42,27,26,215,00*73
$MXPGN,00FF19,7808,0000000602009F41*11
$HCHDG,279.7,0.0,E,23.3,W*69
$PSMDSTAT,R,4781,25,18,9,0,0*5B
$HCHDG,279.7,0.0,E,23.3,W*69
$GPGGA,130023.000,2254.75651,S,04309.54283,W,1,12,0.70,0.85,M,-5.60,M,,*70
$MXPGN,01F803,281C,000000FFFDA97863*14
$HCHDG,279.7,0.0,E,23.3,W*69
$GPVTG,262.00,T,,M,0.00,N,0.00,K,A*3B
$GPHDT,256.41,T*01
$MXPGN,01F803,281C,000000FFFDA98C64*67
$HCHDG,279.7,0.0,E,23.3,W*69
$MXPGN,01F803,281C,000000FFFDA99F65*62
$HCHDG,279.7,0.0,E,23.3,W*69
$VDVBW,0.00,,A,,,A,,A,,A*4F
$MXPGN,01FE10,2872,0000000000000000*6C
$HCHDG,279.8,0.0,E,23.3,W*66
$PSMDSTAT,R,4781,25,18,9,0,0*5B
$GPGGA,130024.000,2254.75648,S,04309.54277,W,1,12,0.70,0.91,M,-5.60,M,,*71
$MXPGN,01F804,281C,0000004998C1786D*60
$TIROT,-0.19,A*2E
$ERRPM,E,0,583.00,,A*50
$GPZDA,130024.280,14,02,2023,,*5C
$MXPGN,01FE10,2872,0000000000000000*6C
$MXPGN,01F803,281C,0000000000006474*65
$VDVBW,0.00,,A,,,A,,A,,A*4F
$MXPGN,01F804,281C,0000009C80C17875*6E
$MXPGN,00FF19,7808,0080000A0A009F41*1D
$PSMDSTAT,R,4781,25,18,9,0,0*5B
$MXPGN,01FF1A,782B,FFFAFF859F410560*1D
$GPGGA,130025.000,2254.75651,S,04309.54270,W,1,12,0.70,1.04,M,-5.60,M,,*72
$MXPGN,01F803,281C,000000000000A077*15
$ERRPM,E,0,580.00,,A*53
$AGRSA,0.00,A,,V*4F
$GPHDT,256.43,T*03
$MXPGN,00FF00,280B,0002000005049913*19
$MXPGN,01F804,281C,000000C4C7C1287D*6B
$MXPGN,01F205,2872,00000AAB00000100*6C
$MXPGN,01F205,2872,00000AAB00000100*6C
$AGRSA,0.00,A,,V*4F
$MXPGN,01FE10,2872,0000000000000000*6C
$TIROT,0.89,A*0A
$ERRPM,E,0,588.00,,A*5B
$GPGGA,130026.000,2254.75655,S,04309.54270,W,1,12,0.70,0.98,M,-5.60,M,,*71
$AGRSA,0.00,A,,V*4F
$GPGSV,2,2,08,18,39,133,36,23,56,166,46,26,30,302,43,27,26,215,00*71
$MXPGN,01FA06,681C,FFFFFFFFFF01A7A2*18
$GPGLL,2254.75330,S,04309.54249,W,130026.500,A,A*56
$MXPGN,00FF3C,3808,8000F9FE00009F41*1D
$HCHDG,279.7,0.0,E,23.3,W*69
$MXPGN,00FF00,280B,0002000005049913*19
$MXPGN,00FF16,7808,FF0000002B0A9F41*1B
$HCHDG,279.7,0.0,E,23.3,W*69
$ERRPM,E,0,592.00,,A*50
$MXPGN,01F803,281C,0000000000005089*60
$MXPGN,01F804,281C,0000001F84C15089*6E
$VDVBW,0.00,,A,,,A,,A,,A*4F
!AIVDM,1,1,,B,1:U8M80P00trH>QjqB`qdwvp2D2d,0*0A
$MXPGN,01F803,281C,000000000000008F*1A
$MXPGN,01FA06,681C,7700AC00C88F0FC0*1E
$GPGLL,2254.75330,S,04309.54249,W,130027.500,A,A*57
$HCHDG,279.8,0.0,E,23.3,W*66
$MXPGN,01F803,281C,0000000000001490*68
$GPGSA,A,3,02,10,16,18,23,26,29,32,66,81,67,68,1.30,1.10,1.10*04
$MXPGN,01FF2C,7808,FFFFFFFF9F411740*6F
$MXPGN,01F804,281C,000000EC62C12891*11
$GPHDT,256.44,T*04
$AGRSA,0.05,A,,V*4A
$AGRSA,-0.06,A,,V*64
$GPHDT,256.40,T*00
$ERRPM,E,0,565.00,,A*58
$MXPGN,01F803,281C,0000000000000099*64
$MXPGN,01FA06,681C,7700AC00C8990FE0*66
$GPGGA,130028.500,2254.75330,S,04309.54249,W,1,08,2.09,3.08,M,-5.00,M,,*7D
$VWVHW,,T,,M,0.00,N,0.00,K*54
$HCHDG,279.7,0.0,E,23.3,W*69
$GPGSV,3,3,12,66,53,139,36,81,45,146,36,67,63,357,45,68,13,340,39*79
$MXPGN,00FF16,7808,FF0000002B0A9F41*1B
$GPGGA,,2254.75359,S,04309.54229,W,1,,,,M,,M,,*59
$MXPGN,00FF00,280B,0002000005049913*19
$GPZDA,130029.270,14,02,2023,,*5E
$GPHDT,256.37,T*00
$MXPGN,01F804,281C,00000061A4C19FA1*6C
$MXPGN,00FF00,280B,0002000005049913*19
$MXPGN,01FE10,2872,0000000000000000*6C
$MXPGN,01F205,2872,00000AAB00000100*6C
$GPHDT,256.37,T*00
$MXPGN,01F804,281C,0000009B6AC114A4*6D
$GPGGA,130030.000,2254.75715,S,04309.54250,W,1,12,0.70,1.17,M,-5.60,M,,*77
$MXPGN,01F803,281C,00000000000078A9*13
$ERRPM,E,0,575.00,,A*59
$MXPGN,01F803,281C,0000000000008CAA*1F
$TIROT,0.09,A*02
$HCHDG,279.6,0.0,E,23.3,W*68
$MXPGN,01F804,281C,0000000F1FC19FAB*6C
$MXPGN,00FF00,280B,0002000005049913*19
$MXPGN,01F205,2872,00000AAB00000100*6C
$MXPGN,01FF1A,782B,FFFAFF859F410520*19
$MXPGN,00FF8C,6808,FFF1065DACB89F41*1F
$HCHDG,279.6,0.0,E,23.3,W*68
$GPGGA,130031.000,2254.75726,S,04309.54253,W,1,12,0.70,1.04,M,-5.60,M,,*77
$GPVTG,0.00,T,,M,0.09,N,0.16,K,A*33
$MXPGN,01FF1A,782B,FF010B049F410520*64
$GPGLL,2254.75369,S,04309.54229,W,,A,A*41
$HCHDG,279.6,0.0,E,23.3,W*68
$MXPGN,01F804,281C,0000001A3FC1C8B5*18
$MXPGN,01FF0D,780B,FF030000989005A0*17
$MXPGN,01F205,2872,00000AAB00000100*6C
!AIVDM,1,1,,B,1:U8JFPP1`LrNU9jqJRC:ww008BM,0*4F
$AGRSA,-0.24,A,,V*64
$MXPGN,00FF19,7808,0080000A0A009F41*1D
$MXPGN,00FF00,280B,0002000005049913*19
$PSMDSTAT,R,4770,25,10,9,0,0*5D
$GPGGA,130032.000,2254.75726,S,04309.54264,W,1,12,0.70,1.17,M,-5.60,M,,*72
$GPVTG,0.00,T,,M,0.09,N,0.16,K,A*33
$MXPGN,01FF1A,782B,FF010B049F410540*62
$GPVTG,262.00,T,,M,0.00,N,0.00,K,A*3B
$ERRPM,E,0,567.00,,A*5A
$MXPGN,01F804,281C,000000996EC18CBE*1E
$AGRSA,-0.06,A,,V*64
$ERRPM,E,0,575.00,,A*59
$MXPGN,01F803,281C,00000000000050C5*17
$MXPGN,00FF19,7808,0080000A0A009F41*1D
$MXPGN,00FF00,280B,0002000005049913*19
!AIVDM,1,1,,B,1:U6vLPP01trHfujpdm<S?w02D22,0*59
!AIVDM,1,1,,A,1:U8hK0P00Lr>1Ijr?Kh6?wp0W3h,0*4D
$GPGGA,130033.000,2254.75735,S,04309.54272,W,1,12,0.70,1.24,M,-5.60,M,,*76
$MXPGN,01F804,281C,0000006152C178C7*6A
$MXPGN,01FE10,2872,0000000000000000*6C
$GPGGA,,2254.75359,S,04309.54239,W,1,,,,M,,M,,*58
$MXPGN,01F205,2872,00000AAB00000100*6C
$GPGSA,A,3,02,10,16,18,23,26,29,32,66,81,67,68,1.30,1.10,1.10*04
$AGRSA,-0.06,A,,V*64
$MXPGN,00FF16,7808,FF0000002B0A9F41*1B
$HCHDG,279.6,0.0,E,23.3,W*68
$MXPGN,01F803,281C,0000000000003BCE*13
$VDVBW,0.00,,A,,,A,,A,,A*4F
$ERRPM,E,0,600.00,,A*58
$GPHDT,256.31,T*06
$AGRSA,-0.06,A,,V*64
$GPHDT,256.31,T*06
$GPGGA,130034.000,2254.75748,S,04309.54273,W,1,12,0.70,1.37,M,-5.60,M,,*78
$MXPGN,01F803,281C,00000000000078D1*1E
$GPGGA,130034.500,2254.75330,S,04309.54240,W,1,08,2.09,3.14,M,-5.00,M,,*74
$TIROT,0.00,A*0B
$MXPGN,01F205,2872,00000AAB00000100*6C
$MXPGN,01FF2C,7808,FFFFFFFF9F411720*69
$MXPGN,00FF16,7808,FF0000002B0A9F41*1B
$TIROT,-0.29,A*2D
$HCHDG,279.6,0.0,E,23.3,W*68
$MXPGN,01F803,281C,00000000000050D9*1C
$ERRPM,E,0,586.00,,A*55
$MXPGN,00FF8C,6808,FFF1065DACB89F41*1F
$HCHDG,279.7,0.0,E,23.3,W*69
$MXPGN,01F803,281C,00000000000000DF*66
$GPGSA,A,3,02,10,15,16,18,23,26,27,,,,,2.32,2.09,2.09*08
!AIVDM,1,1,,B,B5`V6o000?>V4JLf;1oQ3wiQnDNb,0*40
$HCHDG,279.7,0.0,E,23.3,W*69
$MXPGN,01F804,281C,00000090A8C114E0*11
$GPGSA,A,3,02,10,16,18,23,26,29,32,66,81,67,68,1.30,1.10,1.10*04
$MXPGN,01FF2C,7808,FFFF7FFFFFFF7F41*12
$MXPGN,01FE10,2872,0000000000000000*6C
$AGRSA,-0.06,A,,V*64
$GPHDT,256.36,T*01
!AIVDM,1,1,,A,1:U7GeSP00LrH4qjplMhG?w625`0,0*60
$AGRSA,-0.06,A,,V*64
$TIROT,-0.39,A*2C
$ERRPM,E,0,576.00,,A*5A
$GPGSV,2,2,08,18,39,133,35,23,56,166,46,26,30,302,44,27,26,215,00*75
$HCHDG,279.7,0.0,E,23.3,W*69
$ERRPM,E,0,576.00,,A*5A
$GPGSA,A,3,02,10,16,18,23,26,29,32,66,81,67,68,1.30,1.10,1.10*04
$MXPGN,01FF2C,7808,FFFF7FFFFFFF7F61*10
$MXPGN,00FF16,7808,FF0000002B0A9F41*1B
$MXPGN,00FF00,280B,0002000005049913*19
$AGRSA,-0.12,A,,V*61
$TIROT,-0.59,A*2A
$HCHDG,279.7,0.0,E,23.3,W*69
$PSMDSTAT,R,3331,25,9,1,0,0*6B
$GPGSV,2,2,08,18,39,133,35,23,56,166,46,26,30,302,43,27,26,215,00*72
$GPVTG,162.03,T,,M,0.01,N,0.01,K,A*3B
$MXPGN,01F803,281C,00000000000014F4*13
$GPGSV,3,1,12,02,13,095,23,10,66,254,42,16,30,255,42,18,39,133,30*70
$MXPGN,01FF2C,7808,FFFF7FFFFFFF7F81*1E
$MXPGN,01FF1A,782B,FF010B049F410500*66
$GPGGA,,2254.75359,S,04309.54249,W,1,,,,M,,M,,*5F
$MXPGN,01F804,281C,0000007713C18CFA*6F
$GPZDA,130038.270,14,02,2023,,*5E
$GPHDT,256.36,T*01
$MXPGN,01F804,281C,0000007713C19F00*6C
$PSMDSTAT,R,3322,25,10,1,0,0*51
$MXPGN,01FA06,681C,7700AC00C8020F20*13
$GPRMC,130038.500,A,2254.75330,S,04309.54249,W,0.00,80.32,140223,23.39,W,A*23
$AGRSA,-0.18,A,,V*6B
$HCHDG,279.7,0.0,E,23.3,W*69
$GPGGA,130039.000,2254.75800,S,04309.54297,W,1,12,0.70,1.76,M,-5.60,M,,*79
$MXPGN,01F804,281C,0000005CF7C17808*11
$TIROT,-0.49,A*2B
$AGRSA,-0.12,A,,V*61
$HCHDG,279.7,0.0,E,23.3,W*69
$MXPGN,01F804,281C,00000047ACC19F0A*1E
$MXPGN,01FF0D,780B,FF030000989005A0*17
$GPHDT,256.38,T*0F
$MXPGN,01F205,2872,00000AAB00000100*6C
$MXPGN,00FF19,7808,0000000602009F41*11
$MXPGN,00FF8C,6808,FFF1065DACB89F41*1F
$PSMDSTAT,R,4793,25,10,9,0,0*50
$GPGGA,130040.000,2254.75787,S,04309.54307,W,1,12,0.70,1.83,M,-5.60,M,,*75
$MXPGN,01F803,281C,0000000000007812*68
$GPHDT,256.34,T*03
$GPGGA,,2254.75359,S,04309.54269,W,1,,,,M,,M,,*5D
$ERRPM,E,0,587.00,,A*54
$MXPGN,01F803,281C,0000000000009F14*1E
$VDVBW,0.00,,A,,,A,,A,,A*4F
$MXPGN,01F205,2872,00000AAB00000100*6C
$MXPGN,01F803,281C,000000000000501A*11
$MXPGN,00FF19,7808,0000000602009F41*11
$MXPGN,00FF00,280B,0002000005049913*19
$ERRPM,E,0,564.00,,A*59
$GPGGA,130041.000,2254.75810,S,04309.54307,W,1,12,0.70,2.03,M,-5.60,M,,*7E
$GPGSA,A,,,,,,,,,,,,,,,,*2F
$MXPGN,01FF1A,782B,FF010B049F410560*60
$GPGGA,,2254.75359,S,04309.54269,W,1,,,,M,,M,,*5D
$ERRPM,E,0,571.00,,A*5D
$MXPGN,01F803,281C,0000000000008C1D*6A
$MXPGN,01FE10,2872,0000000000000000*6C
$GPHDT,256.33,T*04
$HCHDG,279.6,0.0,E,23.3,W*68
$VDVBW,0.00,,A,,,A,,A,,A*4F
$ERRPM,E,0,590.00,,A*52
$GPHDT,256.33,T*04
$PSMDSTAT,R,4784,25,10,9,0,0*56
$HCHDG,279.6,0.0,E,23.3,W*68
$MXPGN,01FF1A,680B,FF022B849F4105A0*1D
$GPVTG,0.00,T,,M,0.09,N,0.16,K,A*33
$HCHDG,279.6,0.0,E,23.3,W*68
$MXPGN,01F804,281C,000000504AC18C27*1F
$ERRPM,E,0,576.00,,A*5A
$GPGSV,3,1,12,02,13,095,21,10,66,254,42,16,30,256,42,18,39,133,31*70
$AGRSA,-0.12,A,,V*61
$MXPGN,00FF3D,6808,7FFFFF0DFFFF9F41*6E
$MXPGN,01F804,281C,00000068DCC1642D*6C
$VDVBW,0.00,,A,,,A,,A,,A*4F
$MXPGN,01F803,281C,000000000000782E*1C
$MXPGN,00FF19,7808,0080000A0A009F41*1D
$MXPGN,01F804,281C,0000001BE7C1782E*68
$GPHDT,256.32,T*05
$MXPGN,01FF1A,680B,FF022B849F4105C0*1F
$AGRSA,-0.12,A,,V*61
$MXPGN,01F205,2872,00000AAB00000100*6C
$MXPGN,01FA06,681C,008300A4115200C1*17
$TIROT,-0.39,A*2C
$ERRPM,E,0,590.00,,A*52
$GPGSA,A,3,02,10,16,18,23,26,29,32,66,81,67,68,1.30,1.10,1.10*04
$MXPGN,01FF1A,682B,9602BC38353636E3*18
$MXPGN,00FF16,7808,FF0000002B0A9F41*1B
$MXPGN,00FF3D,6808,0000FF0BFFFF9F41*19
$MXPGN,01F803,281C,0000000000003B37*11
$VDVBW,0.00,,A,,,A,,A,,A*4F
$GPHDT,256.35,T*02
$MXPGN,01FE10,2872,0000000000000000*6C
$GPGSV,2,1,08,02,12,095,37,10,66,253,49,15,12,134,00,16,29,254,42*7B
$GPGLL,2254.75330,S,04309.54249,W,130044.500,A,A*52
$AGRSA,-0.12,A,,V*61
$GPHDT,256.32,T*05
$GPGSV,3,3,12,66,53,139,36,81,46,145,37,67,63,357,45,68,13,340,41*77
$MXPGN,00FF16,7808,FF0000002B0A9F41*1B
$TIROT,-0.79,A*28
$AGRSA,-0.12,A,,V*61
$MXPGN,01F205,2872,00000AAB00000000*6D
$MXPGN,01F804,281C,0000641751C1B447*64
$MXPGN,01F804,281C,0000001751C10048*1F
$GPGSA,A,3,02,10,15,16,18,23,26,27,,,,,2.32,2.09,2.09*08
$GPGGA,130045.500,2254.75330,S,04309.54249,W,1,08,2.09,3.27,M,-5.00,M,,*7B
$GPHDT,256.32,T*05
$MXPGN,01F804,281C,0000001751C11449*1B
$GPGSA,A,3,02,10,16,18,23,26,29,32,66,81,67,68,1.30,1.10,1.10*04
$MXPGN,01FF2C,7808,FF7FFFFFFFFFFF82*6C
$GPGGA,,2254.75359,S,04309.54279,W,1,,,,M,,M,,*5C
$MXPGN,01F205,2872,00000AAB00000000*6D
$TIROT,-0.29,A*2D
$MXPGN,01FE10,2872,0000000000000000*6C
$VDVBW,0.00,,A,,,A,,A,,A*4F
$HCHDG,279.6,0.0,E,23.3,W*68
$MXPGN,01FE10,2872,0000000000000000*6C
$GPGSV,2,1,08,02,12,095,38,10,66,253,49,15,12,134,00,16,29,254,43*75
$GPGLL,2254.75330,S,04309.54249,W,130046.500,A,A*50
$AGRSA,-0.12,A,,V*61
$HCHDG,279.6,0.0,E,23.3,W*68
$MXPGN,01FF1A,680B,FF022B849F410540*68
$GPRMC,130047.000,A,2254.75907,S,04309.54294,W,0.19,0.00,140223,23.30,W,A*18
$HCHDG,279.6,0.0,E,23.3,W*68
$MXPGN,01F804,281C,00000047F5C18C59*16
$HCHDG,279.6,0.0,E,23.3,W*68
$MXPGN,01FE10,2872,0000000000000000*6C
$TIROT,-0.19,A*2E
$MXPGN,01F804,281C,00000047F5C19F5A*6A
$MXPGN,01F803,281C,000000000000005C*12
$MXPGN,00FF00,280B,0002000005049913*19
$MXPGN,01FA06,681C,008300A411540041*66
$MXPGN,00FF8C,6808,FFF1065DACB89F41*1F
$PSMDSTAT,R,4788,25,10,9,0,0*5A
$GPHDT,256.27,T*01
$MXPGN,01FF1A,680B,FF022B849F410560*6A
$MXPGN,01F803,281C,0000000000007862*6F
$TIROT,-0.59,A*2A
$MXPGN,01F205,2872,00000AAB00000000*6D
$MXPGN,01F803,281C,0000000000008C63*1A
$MXPGN,01FF0D,780B,FF030000989005C0*15
$HCHDG,279.6,0.0,E,23.3,W*68
$VDVBW,0.00,,A,,,A,,A,,A*4F
$MXPGN,01F803,281C,000000000000786A*1C
$MXPGN,00FF19,7808,0080000A0A009F41*1D
$MXPGN,01F804,281C,0000001A44C1786A*19
$GPHDT,256.28,T*0E
$GPGSA,A,,,,,,,,,,,,,,,,*2F
$GPVTG,0.00,T,,M,0.00,N,0.00,K,A*3D
$HCHDG,279.6,0.0,E,23.3,W*68
$GPVTG,262.00,T,,M,0.00,N,0.00,K,A*3B
$TIROT,-0.29,A*2D
$MXPGN,01FE10,2872,0000000000000000*6C
$AGRSA,-0.06,A,,V*64
$TIROT,0.00,A*0B
$MXPGN,01F803,281C,0000000000005074*62
$MXPGN,00FF19,7808,0080000A0A009F41*1D
$PSMDSTAT,R,4753,25,10,9,0,0*5C
$MXPGN,01FF1A,680B,FF022B849F4105A0*1D
$GPVTG,242.19,T,,M,0.19,N,0.35,K,A*3F
$MXPGN,01F205,2872,00000AAB00000000*6D
$AGRSA,-0.12,A,,V*61
$HCHDG,279.6,0.0,E,23.3,W*68
$AGRSA,-0.12,A,,V*61
$GPGSV,3,2,12,23,56,167,38,26,31,303,33,29,24,045,32,32,29,002,35*77
$MXPGN,01F804,281C,000000B752C1287C*1D
$HCHDG,279.6,0.0,E,23.3,W*68
$MXPGN,01F205,2872,00000AAB00000000*6D
$MXPGN,01F803,281C,000000000000507E*13
$MXPGN,01FF1A,782B,FF010B049F4105E0*13
$GPHDT,256.30,T*07
$MXPGN,01F804,281C,000000C979C1507E*12
$MXPGN,00FF00,280B,0002000005049913*19
$MXPGN,01FF1A,680B,FF022B849F410500*6C
$GPGGA,130051.500,2254.75319,S,04309.54249,W,1,08,2.09,3.27,M,-5.00,M,,*75
$VWVHW,,T,,M,0.00,N,0.00,K*54
$MXPGN,01F205,2872,00000AAB00000000*6D
$MXPGN,01FF2C,7808,FFFFFFFF9F411740*6F
$MXPGN,01F804,281C,00000012F4C12886*64
$HCHDG,279.6,0.0,E,23.3,W*68
$MXPGN,00FF1E,5872,00FF24A7B7809890*19
!AIVDO,1,1,,,B:UOH3P00?>VsvLf>c6SkwqUoP06,0*6D
$MXPGN,01F205,2872,00000AAB00000000*6D
$GPHDT,256.31,T*06
$HCHDG,279.6,0.0,E,23.3,W*68
$MXPGN,01F803,281C,000000000000008E*19
$GPGSV,2,1,08,02,12,095,36,10,66,253,47,15,12,134,00,16,29,254,42*74
$GPGGA,130052.500,2254.75319,S,04309.54249,W,1,08,2.09,3.27,M,-5.00,M,,*76
$GPRMC,130052.500,A,2254.75319,S,04309.54249,W,0.03,55.35,140223,23.39,W,A*28
$MXPGN,00FF3C,3808,8000F9FE00009F41*1D
$TIROT,-0.49,A*2B
$MXPGN,01FF2C,7808,FFFFFFFF9F411760*6D
$MXPGN,01F804,281C,00000019F4C12890*68
$GPHDT,256.25,T*03
$MXPGN,01F205,2872,00000AAB00000000*6D
$AGRSA,-0.12,A,,V*61
$GPGSA,A,,,,,,,,,,,,,,,,*2F
$MXPGN,01F803,281C,0000000000007894*66
$HCHDG,279.6,0.0,E,23.3,W*68
$MXPGN,01F804,281C,000000D87EC18C95*68
$AGRSA,-0.12,A,,V*61
$MXPGN,01F205,2872,00000AAB00000000*6D
$MXPGN,01F803,281C,0000000000009F96*14
$GPHDT,256.34,T*03
$MXPGN,00FF00,280B,0002000005049913*19
$MXPGN,01FA06,681C,008300A411570001*61
$TIROT,1.59,A*06
$GPHDT,256.32,T*05
$MXPGN,01FF2C,7808,FFFF7FFFFFFF7F81*1E
$MXPGN,01FE10,2872,0000000000000000*6C
$HCHDG,279.6,0.0,E,23.3,W*68
$AGRSA,-0.18,A,,V*6B
$MXPGN,01FE10,2872,0000000000000000*6C
$VDVBW,0.00,,A,,,A,,A,,A*4F
!AIVDM,1,1,,B,35UhrF5000LrVCAjrLLdLiOb0Dg:,0*18
$MXPGN,01F804,281C,0000003155C100A0*62
$GPGSV,2,1,08,02,12,095,36,10,66,253,47,15,12,134,00,16,29,254,41*77
$GPRMC,130054.400,A,2254.75319,S,04309.54249,W,0.01,72.35,140223,23.39,W,A*28
$AGRSA,-0.12,A,,V*61
$GPGSA,A,3,02,10,16,18,23,26,29,32,66,81,67,68,1.30,1.10,1.10*04
$MXPGN,01FF2C,7808,FFFF7FFFFFFF7FA1*67
$HCHDG,279.6,0.0,E,23.3,W*68
$AGRSA,-0.18,A,,V*6B
$GPHDT,256.30,T*07
$MXPGN,01F804,281C,0000008EB8C1C8AA*6D
$MXPGN,01FF0D,780B,FF030000989005A0*17
$MXPGN,01FF1A,782B,FF010B049F410500*66
$ERRPM,E,0,563.00,,A*5E
$GPGSV,2,2,08,18,39,133,34,23,56,165,45,26,30,302,41,27,27,215,00*70
$GPRMC,130055.500,A,2254.75319,S,04309.54249,W,0.00,277.21,140223,23.39,W,A*1B
$AGRSA,-0.18,A,,V*6B
$HCHDG,279.6,0.0,E,23.3,W*68
$GPGSA,A,,,,,,,,,,,,,,,,*2F
$MXPGN,01F803,281C,00000000000078B2*1B
$GPGGA,,2254.75339,S,04309.54279,W,1,,,,M,,M,,*5A
$MXPGN,01F205,2872,00000AAB00000000*6D
$GPZDA,130056.290,14,02,2023,,*58
$ERRPM,E,0,756.00,,A*5A
!AIVDO,1,1,,,B:UOH3P00?>VsvLf>c>SkwsUoP06,0*67
$MXPGN,01F205,2872,00000AAB00000000*6D
$MXPGN,01F804,281C,0000000C90C100B5*1C
$GPGSV,2,1,08,02,12,095,35,10,66,253,47,15,12,134,00,16,29,254,41*74
$MXPGN,00FF19,7808,0000000602009F41*11
$AGRSA,-0.12,A,,V*61
$MXPGN,01F205,2872,00000AAB00000000*6D
!AIVDM,2,1,9,A,5:U8Tv`2CqWM1??C?21LTh@D8DE=B2222222221S2a8:94Qh0<TRCp11H2PC,0*3F
$AGRSA,-0.12,A,,V*61
$HCHDG,279.6,0.0,E,23.3,W*68
$GPGLL,2254.75329,S,04309.54279,W,,A,A*40
$HCHDG,279.6,0.0,E,23.3,W*68
$MXPGN,01FE10,2872,0000000000000000*6C
$AGRSA,-0.12,A,,V*61
$ERRPM,E,0,768.00,,A*57
$VDVBW,0.00,,A,,,A,,A,,A*4F
$MXPGN,00FF19,7808,0000000602009F41*11
$MXPGN,00FF8C,6808,FFF1065DACB89F41*1F
$HCHDG,279.6,0.0,E,23.3,W*68
!AIVDO,1,1,,,B:UOH3P00?>VsvLf>cBSkwtUoP06,0*1C
$AGRSA,-0.12,A,,V*61
$MXPGN,01F205,2872,00000AAB00000000*6D
$GPVTG,262.00,T,,M,0.00,N,0.00,K,A*3B
$HCHDG,279.6,0.0,E,23.3,W*68
$MXPGN,01F804,281C,0000002FA2C19FC8*12
$ERRPM,E,0,712.00,,A*5A
$TIROT,0.39,A*01
$MXPGN,01F205,2872,00000AAB00000000*6D
$AGRSA,-0.12,A,,V*61
$MXPGN,01F803,281C,00000000000050CE*67
$HCHDG,279.6,0.0,E,23.3,W*68
$PSMDSTAT,R,4776,25,10,9,0,0*5B
$GPGGA,130059.000,2254.75834,S,04309.54375,W,1,12,0.70,4.84,M,-5.60,M,,*7D
$GPGSA,A,,,,,,,,,,,,,,,,*2F
$TIROT,0.99,A*0B
$ERRPM,E,0,694.00,,A*55
$GPGSV,3,1,12,02,13,095,18,10,66,254,43,16,30,256,42,18,39,132,33*78
$MXPGN,01F803,281C,00000000000028D6*1C
!AIVDM,1,1,,B,1:UUj:3P0hLrLCqjqQ6nfgwp2t3h,0*0C
$MXPGN,00FF1E,5872,00FF65BD9F009890*6E
!AIVDM,1,1,,B,1:U7550w@0LrUJ1jrHER0Vf005`4,0*4D
$MXPGN,01F803,281C,00000000000050D8*1D
$MXPGN,00FF19,7808,0080000A0A009F41*1D
$MXPGN,01F803,281C,00000000000050D8*1D
$PSMDSTAT,R,4788,25,10,9,0,0*5A
$AGRSA,-0.18,A,,V*6B
$AGRSA,-0.18,A,,V*6B
$MXPGN,00FF00,280B,0002000005049913*19
$GPGGA,130100.400,2254.75319,S,04309.54249,W,1,08,2.09,3.27,M,-5.00,M,,*71
$TIROT,1.19,A*02
$ERRPM,E,0,742.00,,A*5F
$GPGSV,3,1,12,02,13,095,18,10,66,254,43,16,30,256,42,18,39,132,33*78
$MXPGN,01FF2C,7808,FFFFFFFF7FFFFF63*63
$ERRPM,E,0,730.00,,A*5A
$MXPGN,00FF00,280B,0002000005049913*19
$HCHDG,279.7,0.0,E,23.3,W*69
$MXPGN,01F803,281C,00000000000078E2*1C
$VDVBW,0.00,,A,,,A,,A,,A*4F
$MXPGN,01FF1A,680B,FF022B849F410540*68
$MXPGN,01F804,281C,000000BAA9C100E8*17
$GPGSV,2,2,08,18,39,132,35,23,56,165,46,26,30,302,44,27,27,215,00*76
$GPVTG,273.78,T,,M,0.01,N,0.01,K,A*34
$MXPGN,01F804,281C,000000BAA9C114E9*13
$GPGSV,3,1,12,02,13,095,18,10,66,254,43,16,30,256,42,18,39,132,33*78
$MXPGN,01FF2C,7808,FF7FFFFFFFFFFF82*6C
$MXPGN,01F205,2872,00000AAB00000000*6D
$MXPGN,01F804,281C,00000023C0C13BEB*15
$AGRSA,-0.18,A,,V*6B
$HCHDG,279.7,0.0,E,23.3,W*69
$MXPGN,01F803,281C,0000000000009FF0*6D
$HCHDG,279.7,0.0,E,23.3,W*69
$PSMDSTAT,R,4141,25,7,1,0,0*67
$GPGSA,A,3,02,10,15,16,18,23,26,27,,,,,2.32,2.09,2.09*08
$MXPGN,01FA06,681C,008300A4115B0021*16
$GPRMC,130102.500,A,2254.75319,S,04309.54249,W,0.01,61.51,140223,23.39,W,A*2B
$MXPGN,00FF3C,3808,8000F9FE00009F41*1D
$GPHDT,256.41,T*01
$GPGSV,3,3,12,66,53,139,35,81,46,145,38,67,63,357,45,68,13,340,41*7B
$MXPGN,00FF16,7808,FF0000002B0A9F41*1B
$GPGGA,,2254.75299,S,04309.54269,W,1,,,,M,,M,,*50
$ERRPM,E,0,729.00,,A*52
$GPZDA,130103.290,14,02,2023,,*59
$HCHDG,279.7,0.0,E,23.3,W*69
$MXPGN,01FF0D,780B,FF030000989005A0*17
$MXPGN,01FF1A,680B,FF022B849F410580*64
$MXPGN,01F803,281C,0000000000000001*65
$MXPGN,00FF00,280B,0002000005049913*19
$MXPGN,01FA06,681C,FFFFFFFFFF01A742*6D
$HCHDG,279.7,0.0,E,23.3,W*69
$MXPGN,01F804,281C,0000001274C11402*16
$GPGSA,A,,,,,,,,,,,,,,,,*2F
$GPGGA,130104.000,2254.75666,S,04309.54351,W,1,12,0.70,5.96,M,-5.60,M,,*79
$GPHDT,256.54,T*05
$ERRPM,E,0,707.00,,A*5E
$AGRSA,-0.18,A,,V*6B
$HCHDG,279.8,0.0,E,23.3,W*66
$MXPGN,01FF0D,780B,FF030000989005C0*15
$ERRPM,E,0,711.00,,A*59
!AIVDM,1,1,,B,1:U8hK0P03Lr>1Ujr?HESgwp0PRN,0*02
$MXPGN,01FE10,2872,0000000000000000*6C
$GPGSV,2,1,08,02,12,095,35,10,66,253,47,15,12,134,00,16,29,254,41*74
$MXPGN,00FF8C,6808,FFF1065DACB89F41*1F
$MXPGN,01F205,2872,00000AAB00000000*6D
$GPGSA,A,,,,,,,,,,,,,,,,*2F
$GPGGA,130105.000,2254.75661,S,04309.54346,W,1,12,0.70,6.02,M,-5.60,M,,*77
$GPGGA,,2254.75289,S,04309.54259,W,1,,,,M,,M,,*52
$ERRPM,E,0,741.00,,A*5C
$GPZDA,130105.290,14,02,2023,,*5F
$MXPGN,01F205,2872,00000AAB00000000*6D
$AGRSA,-0.12,A,,V*61
$MXPGN,01FF1A,680B,FF022B849F4105C0*1F
$MXPGN,01F804,281C,0000003A58C10015*6A
$AGRSA,-0.12,A,,V*61
$MXPGN,00FF19,7808,0080000A0A009F41*1D
$AGRSA,-0.18,A,,V*6B
!AIVDO,1,1,,,B:UOH3P00?>VswLf>cRSkwRUoP06,0*2B
$GPGSA,A,,,,,,,,,,,,,,,,*2F
$ERRPM,E,0,718.00,,A*50
$GPGGA,130106.000,2254.75654,S,04309.54339,W,1,12,0.70,6.22,M,-5.60,M,,*78
$MXPGN,01F804,281C,FFFF9C5577C18C1C*62
$GPZDA,130106.290,14,02,2023,,*5C
$HCHDG,280.0,0.0,E,23.3,W*68
$MXPGN,00FF00,280B,0002000005049913*19
$HCHDG,280.0,0.0,E,23.3,W*68
$MXPGN,01F803,281C,0000000000007823*6A
$MXPGN,00FF19,7808,0000000602009F41*11
$MXPGN,00FF8C,6808,FFF1065DACB89F41*1F
$MXPGN,01F205,2872,00000AAB00000000*6D
$GPGSA,A,,,,,,,,,,,,,,,,*2F
$MXPGN,01F205,2872,00000AAB00000000*6D
$GPGLL,2254.75648,S,04309.54336,W,130107.000,A,A*52
$ERRPM,E,0,759.00,,A*55
$HCHDG,280.0,0.0,E,23.3,W*68
$MXPGN,01F803,281C,000000000000C827*1A
$TIROT,0.69,A*04
$MXPGN,01F803,281C,000000000000282B*1E
$GPHDT,256.66,T*04
$MXPGN,00FF1E,5872,00FF567A89009890*60
$VDVBW,0.00,,A,,,A,,A,,A*4F
$MXPGN,00FF19,7808,0000000602009F41*11
$TIROT,0.19,A*03
$PSMDSTAT,R,4757,25,10,9,0,0*58
$GPGSA,A,,,,,,,,,,,,,,,,*2F
$MXPGN,01F205,2872,00000AAB00000000*6D
$GPVTG,262.00,T,,M,0.00,N,0.00,K,A*3B
$GPRMC,130108.500,A,2254.75330,S,04309.54240,W,0.01,225.50,140223,23.39,W,A*10
$VWVHW,,T,,M,0.00,N,0.00,K*54
$MXPGN,01F804,281C,00000099BEC11434*14
$GPGSV,3,3,12,66,53,139,35,81,46,145,38,67,63,357,45,68,13,340,40*7A
$MXPGN,01FF2C,7808,FFFFFFFF7FFFFF63*63
$MXPGN,01F205,2872,00000AAB00000000*6D
$MXPGN,00FF3D,6808,FFFFFF0CFFFF9F41*18
$ERRPM,E,0,699.00,,A*58
$VDVBW,0.00,,A,,,A,,A,,A*4F
$MXPGN,01F803,281C,0000000000005037*65
$HCHDG,279.9,0.0,E,23.3,W*67
$HCHDG,280.0,0.0,E,23.3,W*68
$MXPGN,01F804,281C,00000086EFC1003D*6B
$GPGSA,A,3,02,10,15,16,18,23,26,27,,,,,2.32,2.09,2.09*08
$GPGLL,2254.75330,S,04309.54240,W,130109.500,A,A*53
$AGRSA,-0.18,A,,V*6B
$GPGSA,A,3,02,10,16,18,23,26,29,32,66,81,67,68,1.30,1.10,1.10*04
$GPHDT,256.66,T*04
$MXPGN,00FF16,7808,FF0000002B0A9F41*1B
$MXPGN,01FF06,380B,00000E12FC0000A1*1D
$AGRSA,-0.18,A,,V*6B
$HCHDG,279.8,0.0,E,23.3,W*66
$MXPGN,01F803,281C,000000000000B446*10
$ERRPM,E,0,728.00,,A*53
$TIROT,-2.09,A*2D
$MXPGN,01F804,281C,000000534AC10047*61
$MXPGN,00FF00,280B,0002000005049913*19
$GPGGA,130110.500,2254.75330,S,04309.54240,W,1,08,2.09,3.14,M,-5.00,M,,*73
$GPHDT,256.49,T*09
$MXPGN,01F205,2872,00000AAB00000000*6D
$MXPGN,01FF2C,7808,FFFFFFFF9F4117A0*1A
$MXPGN,01F803,281C,FFFDA80000002849*18
$MXPGN,01FF06,380B,060001FF99130F60*6B
$MXPGN,00FF00,280B,0002000005049913*19
$MXPGN,01F205,2872,00000AAB00000000*6D
$MXPGN,01F803,281C,FFFDA80000009F4F*12
$MXPGN,01FF1A,680B,FF022B849F410580*64
$AGRSA,-0.12,A,,V*61
$MXPGN,00FF00,280B,0002000005049913*19
$GPGGA,130111.500,2254.75330,S,04309.54249,W,1,08,2.09,3.14,M,-5.00,M,,*7B
$GPHDT,256.53,T*02
$MXPGN,01F804,281C,0000008094C11452*16
$GPGSV,3,3,12,66,53,139,34,81,46,145,38,67,63,357,44,68,13,340,40*7A
$HCHDG,279.8,0.0,E,23.3,W*66
$GPRMC,130112.000,A,2254.75595,S,04309.54343,W,0.09,0.00,140223,23.30,W,A*14
$HCHDG,279.8,0.0,E,23.3,W*66
$AGRSA,-0.12,A,,V*61
$MXPGN,01F205,2872,00000AAB00000000*6D
$MXPGN,01F804,281C,000000F2FBC19F59*12
!AIVDM,1,1,,B,1:U7BH@000LrNjijsKtF0hdl0<3>,0*74
$MXPGN,01F804,281C,000000F2FBC10059*6D
$GPGSV,2,2,08,18,38,132,35,23,56,165,47,26,30,302,45,27,27,215,00*77
$GPGLL,2254.75330,S,04309.54249,W,130112.400,A,A*51
$VWVHW,,T,,M,0.00,N,0.00,K*54
$HCHDG,279.8,0.0,E,23.3,W*66
!AIVDM,1,1,,B,1:U6vLPP00trHfQjpdhsk?vH200>,0*0D
$ERRPM,E,0,744.00,,A*59
$GPGLL,2254.75239,S,04309.54269,W,,A,A*41
$GPVTG,0.00,T,,M,0.09,N,0.16,K,A*33
$HCHDG,279.8,0.0,E,23.3,W*66
$MXPGN,01FE10,2872,0000000000000000*6C
$MXPGN,01F804,281C,0000008CB4C1DC64*19
!AIVDM,2,1,1,B,53MBRU82<uL<ldU9>20t<D4pT<5=D:1HV222220R2I=@24Tmj?4RCp11H2PC,0*0B
$MXPGN,01FF06,380B,080001FF99130FA0*12
$PSMDSTAT,R,5096,25,10,1,0,0*5B
$MXPGN,00FF19,7808,0080000A0A009F41*1D
$AGRSA,-0.18,A,,V*6B
$MXPGN,00FF00,280B,0002000005049913*19
$GPGSA,A,,,,,,,,,,,,,,,,*2F
$ERRPM,E,0,733.00,,A*59
$GPGLL,2254.75239,S,04309.54269,W,,A,A*41
$GPVTG,0.00,T,,M,0.09,N,0.16,K,A*33
$GPHDT,256.51,T*00
$MXPGN,01FE10,2872,0000000000000000*6C
$VDVBW,0.00,,A,,,A,,A,,A*4F
$MXPGN,01FF0D,780B,FF03000098900500*66
$HCHDG,279.9,0.0,E,23.3,W*67
$MXPGN,01F803,281C,0000000000005073*65
$MXPGN,00FF19,7808,0080000A0A009F41*1D
$MXPGN,00FF8C,6808,FFF1065DACB89F41*1F
$ERRPM,E,0,717.00,,A*5F
$GPGSA,A,,,,,,,,,,,,,,,,*2F
$MXPGN,01F205,2872,00000AAB00000000*6D
$GPGLL,2254.75229,S,04309.54269,W,,A,A*40
$GPVTG,0.00,T,,M,0.09,N,0.16,K,A*33
$GPHDT,256.51,T*00
$MXPGN,01F803,281C,0000000000009F77*1B
$MXPGN,01FE10,2872,0000000000000000*6C
$MXPGN,00FF00,280B,0002000005049913*19
$MXPGN,01F205,2872,00000AAB00000000*6D
$VDVBW,0.00,,A,,,A,,A,,A*4F
$ERRPM,E,0,780.00,,A*51
$MXPGN,00FF8C,6808,FFF1065DACB89F41*1F
$PSMDSTAT,R,4803,25,10,9,0,0*56
$TIROT,0.29,A*00
$GPGSA,A,,,,,,,,,,,,,,,,*2F
$ERRPM,E,0,774.00,,A*5A
$GPGLL,2254.75209,S,04309.54279,W,,A,A*43
$GPVTG,0.00,T,,M,0.09,N,0.16,K,A*33
$MXPGN,01F803,281C,0000000000001484*6D
$GPGSV,3,2,12,23,56,165,39,26,31,304,33,29,23,045,26,32,30,002,27*7A
!AIVDM,2,1,4,B,5:U8?M42ERR11?KOK<1`EE<0000000000000000t10E640@PJ3lRCp0j0DRE,0*3F
$AGRSA,-0.18,A,,V*6B
$MXPGN,01F205,2872,00000AAB00000000*6D
$MXPGN,01F803,281C,0000000000003B86*1B
$TIROT,-0.59,A*2A
$MXPGN,01F804,281C,0000001340C15087*1D
$HCHDG,279.8,0.0,E,23.3,W*66
$MXPGN,01F803,281C,0000000000005087*6E
$AGRSA,-0.12,A,,V*61
$AGRSA,-0.18,A,,V*6B
$ERRPM,E,0,730.00,,A*5A
$MXPGN,01FA06,681C,7700AD00C88D0F00*68
$GPRMC,130117.500,A,2254.75330,S,04309.54249,W,0.01,349.33,140223,23.39,W,A*19
$AGRSA,-0.18,A,,V*6B
$GPGSA,A,3,02,10,16,18,23,26,29,32,66,81,67,68,1.30,1.10,1.10*04
$MXPGN,01FF2C,7808,FFFF7FFFFFFF7F81*1E
$MXPGN,01F804,281C,0000635A34C1288F*13
!AIVDM,1,1,,B,1:U8?M0P2TtrQFIjpwaKq?vP2<2`,0*1C
$ERRPM,E,0,580.00,,A*53
$VDVBW,0.00,,A,,,A,,A,,A*4F
$MXPGN,01FF1A,680B,FF022B849F410560*6A
$MXPGN,01FF1A,782B,FF010B049F4105E0*13
$AGRSA,-1.08,A,,V*6B
$MXPGN,01F205,2872,00000AAB00000100*6C
$GPGSV,2,2,08,18,38,132,36,23,55,165,47,26,30,302,45,27,27,215,00*77
$MXPGN,00FF00,280B,0002000005049913*19
$TIROT,0.39,A*01
$MXPGN,01F804,281C,0000001F1FC11496*1B
$GPGSV,3,1,12,02,12,094,26,10,66,254,42,16,30,256,43,18,39,132,33*75
$MXPGN,00FF16,7808,FF0000002B0A9F41*1B
$MXPGN,01F205,2872,00000AAB00000100*6C
$MXPGN,00FF00,280B,0002000005049913*19
$ERRPM,E,0,595.00,,A*57
$MXPGN,01F803,281C,000000000000DCA0*12
$AGRSA,-0.24,A,,V*64
$MXPGN,01F205,2872,00000AAB00000100*6C
$MXPGN,01FA06,681C,008300A411630041*62
$GPRMC,130119.500,A,2254.75330,S,04309.54249,W,0.01,82.38,140223,23.39,W,A*28
$MXPGN,00FF3C,3808,8000F9FE00009F41*1D
$ERRPM,E,0,552.00,,A*5C
$GPGSV,3,3,12,66,53,139,34,81,46,145,38,67,63,357,45,68,13,340,40*7B
$GPGGA,,2254.75209,S,04309.54279,W,1,,,,M,,M,,*58
$GPRMC,130120.000,A,2254.75643,S,04309.54394,W,0.09,0.00,140223,23.30,W,A*17
$TIROT,-0.29,A*2D
$ERRPM,E,0,604.00,,A*5C
$MXPGN,01FF1A,680B,FF022B849F4105A0*1D
$MXPGN,01F205,2872,00000AAB00000100*6C
$AGRSA,0.00,A,,V*4F
$GPGSA,A,3,02,10,15,16,18,23,26,27,,,,,2.32,2.09,2.09*08
$GPGGA,130120.500,2254.75330,S,04309.54240,W,1,08,2.09,3.14,M,-5.00,M,,*70
$GPHDT,256.40,T*00
$MXPGN,01F803,281C,00000000000014AC*63
$GPGSA,A,,,,,,,,,,,,,,,,*2F
$MXPGN,01F205,2872,00000AAB00000100*6C
$MXPGN,01FF1A,680B,FF022B849F410500*6C
$GPGLL,2254.75651,S,04309.54403,W,130121.000,A,A*5F
$MXPGN,01F804,281C,0000004346C18CB2*1F
$TIROT,0.49,A*06
$MXPGN,01F803,281C,0000000000009FB3*6A
$HCHDG,279.7,0.0,E,23.3,W*69
$MXPGN,01F803,281C,000000000000B4B4*64
$MXPGN,01FF1A,782B,FF010B049F4105A0*17
$MXPGN,01F804,281C,0000003489C100B5*60
$MXPGN,00FF8C,6808,FFF1065DACB89F41*1F
$MXPGN,01F205,2872,00000AAB00000100*6C
$MXPGN,00FF00,280B,0002000005049913*19
$MXPGN,01FF1A,782B,FFFAFF859F410500*1B
$GPVTG,262.00,T,,M,0.00,N,0.00,K,A*3B
$MXPGN,01F803,281C,FFFDA80000008CBC*65
$HCHDG,279.6,0.0,E,23.3,W*68
$MXPGN,01F205,2872,00000AAB00000100*6C
$VDVBW,0.00,,A,,,A,,A,,A*4F
$MXPGN,01FF0D,780B,FF03000098900500*66
$MXPGN,01F803,281C,00000000000000BF*60
$VDVBW,0.00,,A,,,A,,A,,A*4F
$MXPGN,00FF8C,6808,FFF1065DACB89F41*1F
$TIROT,0.79,A*05
$AGRSA,0.00,A,,V*4F
$GPGGA,,2254.75209,S,04309.54279,W,1,,,,M,,M,,*58
$GPVTG,0.00,T,,M,0.09,N,0.16,K,A*33
$GPZDA,130123.280,14,02,2023,,*5A
$TIROT,0.89,A*0A
$AGRSA,-0.06,A,,V*64
$GPGSA,A,3,02,10,15,16,18,23,26,27,,,,,2.32,2.09,2.09*08
$MXPGN,00FF3D,6808,FFFFFF03FFFF9F41*68
$MXPGN,00FF00,280B,0002000005049913*19
$VDVBW,0.00,,A,,,A,,A,,A*4F
$GPHDT,256.17,T*02
$PSMDSTAT,R,4792,25,10,9,0,0*51
$AGRSA,-0.06,A,,V*64
$GPGGA,,2254.75209,S,04309.54279,W,1,,,,M,,M,,*58
$GPRMC,130124.000,A,2254.75648,S,04309.54423,W,0.19,0.00,140223,23.30,W,A*12
$TIROT,1.09,A*03
$TIROT,1.09,A*03
$GPGSA,A,3,02,10,16,18,23,26,29,32,66,81,67,68,1.30,1.10,1.10*04
$MXPGN,01FF2C,7808,FFFFFFFF7FFFFF63*63
$MXPGN,00FF3D,6808,7FFFFF0DFFFF9F41*6E
$MXPGN,00FF00,280B,0002000005049913*19
$AGRSA,-0.06,A,,V*64
$TIROT,0.19,A*03
$MXPGN,01F804,281C,0000008DB4C178D7*67
$MXPGN,01FF1A,782B,FFFAFF859F410560*1D
$AGRSA,-0.06,A,,V*64
$GPGGA,,2254.75219,S,04309.54279,W,1,,,,M,,M,,*59
$GPVTG,0.00,T,,M,0.09,N,0.16,K,A*33
$GPZDA,130125.280,14,02,2023,,*5C
$GPGGA,130125.500,2254.75330,S,04309.54249,W,1,08,2.09,3.14,M,-5.00,M,,*7C
$MXPGN,00FF00,280B,0002000005049913*19
$HCHDG,279.5,0.0,E,23.3,W*6B
$MXPGN,01FF2C,7808,FFFFFFFF9F411780*63
$HCHDG,279.5,0.0,E,23.3,W*6B
$MXPGN,01F804,281C,0000009D5DC13BE0*19
$VDVBW,0.00,,A,,,A,,A,,A*4F
$TIROT,-0.89,A*27
$MXPGN,01F804,281C,0000002946C150E1*69
$AGRSA,-0.06,A,,V*64
$AGRSA,-0.06,A,,V*64
$MXPGN,01FA06,681C,008300A411660021*61
$GPGGA,130126.500,2254.75330,S,04309.54249,W,1,08,2.09,3.14,M,-5.00,M,,*7F
$VWVHW,,T,,M,0.00,N,0.00,K*54
$MXPGN,01FF1A,782B,FF010B049F410580*6E
$GPGSV,3,3,12,66,53,139,34,81,46,145,39,67,63,357,46,68,13,340,39*77
$AGRSA,-0.06,A,,V*64
$TIROT,0.69,A*04
$GPHDT,256.24,T*02
$AGRSA,-0.06,A,,V*64
$HCHDG,279.5,0.0,E,23.3,W*6B
$HCHDG,279.5,0.0,E,23.3,W*6B
$VDVBW,0.00,,A,,,A,,A,,A*4F
$HCHDG,279.5,0.0,E,23.3,W*6B
$GPGSV,2,1,08,02,12,094,37,10,66,252,48,15,12,134,00,16,29,255,43*7A
$GPGGA,130127.500,2254.75330,S,04309.54249,W,1,08,2.09,3.14,M,-5.00,M,,*7E
$GPHDT,256.25,T*03
$MXPGN,00FF00,280B,0002000005049913*19
$MXPGN,01F804,281C,000000A21EC114F2*67
$GPGSV,3,2,12,23,56,165,39,26,31,304,28,29,23,045,23,32,30,002,18*79
$MXPGN,01F803,281C,00000000000028F3*1B
$AGRSA,-0.06,A,,V*64
$HCHDG,279.6,0.0,E,23.3,W*68
$HCHDG,279.5,0.0,E,23.3,W*6B
$MXPGN,01F804,281C,00000040BFC19FF9*11
$MXPGN,01F803,281C,000000000000B4FA*15
$AGRSA,-0.06,A,,V*64
$GPGSV,2,2,08,18,38,132,35,23,55,165,47,26,30,303,44,27,27,215,00*74
$GPRMC,130128.500,A,2254.75330,S,04309.54249,W,0.01,125.99,140223,23.39,W,A*1D
$MXPGN,00FF3C,3808,8000F9FE00009F41*1D
$MXPGN,01FF1A,782B,FF010B049F4105C0*15
$GPGSV,3,1,12,02,12,094,27,10,66,254,42,16,30,256,41,18,39,132,29*7D
$MXPGN,01FF2C,7808,FFFFFFFF7FFFFFE3*10
$MXPGN,00FF3D,6808,0000FF0BFFFF9F41*19
$HCHDG,279.6,0.0,E,23.3,W*68
$GPGGA,130129.000,2254.75630,S,04309.54471,W,1,12,0.70,5.70,M,-5.60,M,,*78
$MXPGN,01F804,281C,000000D4C4C18C07*6A
$MXPGN,00FF00,280B,0002000005049913*19
$HCHDG,279.5,0.0,E,23.3,W*6B
$GPGSV,2,1,08,02,12,094,37,10,66,252,48,15,12,134,00,16,29,255,42*7B
$GPGGA,130129.500,2254.75330,S,04309.54249,W,1,08,2.09,3.14,M,-5.00,M,,*70
$MXPGN,00FF00,280B,0002000005049913*19
$MXPGN,01F803,281C,000000000000140B*13
$GPGSV,3,1,12,02,12,094,26,10,66,254,42,16,30,256,41,18,39,132,29*7C
$HCHDG,279.6,0.0,E,23.3,W*68
$AGRSA,-0.06,A,,V*64
$GPGLL,2254.75637,S,04309.54483,W,130130.000,A,A*57
$HCHDG,279.6,0.0,E,23.3,W*68
$MXPGN,01F803,281C,0000000000008C11*1F
$MXPGN,01FF0D,780B,FF03000098900500*66
$MXPGN,01F804,281C,00000007FFC10012*15
$MXPGN,01FA06,681C,FFFFFFFFFF01A8A2*17
$GPVTG,11.72,T,,M,0.01,N,0.01,K,A*08
$MXPGN,01FF1A,680B,FF022B849F410520*6E
$MXPGN,00FF19,7808,0000000602009F41*11
$AGRSA,-0.06,A,,V*64
$HCHDG,279.5,0.0,E,23.3,W*6B
$AGRSA,-0.06,A,,V*64
$GPGLL,2254.75239,S,04309.54259,W,,A,A*42
$GPRMC,130131.000,A,2254.75633,S,04309.54498,W,0.09,0.00,140223,23.30,W,A*1B
$MXPGN,01F803,281C,000000000000C81C*6D
$MXPGN,01F804,281C,0000002365C1DC1D*61
$PSMDSTAT,R,5126,24,7,1,0,0*66
$MXPGN,01FA06,681C,FFFFFFFFFF01A8C2*15
$HCHDG,279.5,0.0,E,23.3,W*6B
$AGRSA,-0.06,A,,V*64
$HCHDG,279.5,0.0,E,23.3,W*6B
$MXPGN,00FF8C,6808,FFF1065DACB89F41*1F
$PSMDSTAT,R,4204,24,10,9,0,0*5A
$AGRSA,-0.06,A,,V*64
$GPGGA,,2254.75239,S,04309.54259,W,1,,,,M,,M,,*59
$GPVTG,0.00,T,,M,0.00,N,0.00,K,A*3D
$HCHDG,279.5,0.0,E,23.3,W*6B
$MXPGN,01F804,281C,000064D20DC18C25*6D
$AGRSA,-0.06,A,,V*64
$MXPGN,01FF0D,780B,FF03000098900540*62
$PSMDSTAT,R,5092,24,7,1,0,0*68
$MXPGN,00FF3D,6808,7FFFFF0DFFFF9F41*6E
$MXPGN,00FF00,280B,0002000005049913*19
$MXPGN,01F803,281C,000000000000502C*10
$TIROT,0.59,A*07
$MXPGN,01F804,281C,00000013D6C1502C*15
!AIVDM,1,1,,A,1:U8hK0P02Lr>1ijr?D6iOwp0PSL,0*52
$AGRSA,-0.06,A,,V*64
$GPGGA,,2254.75249,S,04309.54249,W,1,,,,M,,M,,*5F
$GPVTG,0.00,T,,M,0.09,N,0.16,K,A*33
$TIROT,0.49,A*06
$TIROT,-0.09,A*2F
!AIVDM,1,1,,A,1:U7;pPP00LrGtujpjP6Igw220S5,0*65
$MXPGN,01FF1A,782B,00FAFF859F410A60*69
$GPGSV,3,2,12,23,56,165,38,26,31,304,29,29,23,045,29,32,30,002,35*7C
$MXPGN,01FF2C,7808,FFFFFFFF7FFFFF83*6D
$HCHDG,279.4,0.0,E,23.3,W*6A
$MXPGN,01F804,281C,000000D7D9C13B35*68
$AGRSA,-0.06,A,,V*64
$GPHDT,256.15,T*00
$HCHDG,279.5,0.0,E,23.3,W*6B
$AGRSA,-0.06,A,,V*64
$GPGGA,,2254.75249,S,04309.54249,W,1,,,,M,,M,,*5F
$MXPGN,01F803,281C,000000000000003C*14
$GPGSV,2,1,08,02,12,094,38,10,66,252,48,15,12,134,00,16,29,255,42*74
$GPGLL,2254.75330,S,04309.54249,W,130134.500,A,A*54
$MXPGN,00FF3C,3808,8000F9FE00009F41*1D
$HCHDG,279.4,0.0,E,23.3,W*6A
$GPGSV,3,3,12,66,53,139,35,81,46,145,40,67,63,357,46,68,13,340,39*78
$MXPGN,00FF16,7808,FF0000002B0A9F41*1B
$GPHDT,256.08,T*0C
$TIROT,-0.59,A*2A
$MXPGN,01F803,281C,0000000000005040*65
$MXPGN,00FF8C,6808,FFF1065DACB89F41*1F
$AGRSA,-0.06,A,,V*64
$TIROT,0.69,A*04
$GPGSV,2,2,08,18,38,132,35,23,55,165,47,26,30,303,45,27,27,215,00*75
$GPRMC,130135.600,A,2254.75330,S,04309.54249,W,0.03,0.02,140223,23.39,W,A*14
$MXPGN,01F804,281C,0000000005C11447*12
$HCHDG,279.3,0.0,E,23.3,W*6D
$GPGSV,3,2,12,23,56,165,38,26,31,304,29,29,23,045,29,32,30,002,36*7F
$MXPGN,00FF16,7808,FF0000002B0A9F41*1B
$GPHDT,256.01,T*05
$MXPGN,00FF00,280B,0002000005049913*19
$MXPGN,01F804,281C,00000058A4C13B49*15
$AGRSA,-0.06,A,,V*64
$HCHDG,279.2,0.0,E,23.3,W*6C
$MXPGN,01F804,281C,00000006BCC19F4E*18
$AGRSA,-0.06,A,,V*64
$GPGSV,2,2,08,18,38,132,35,23,55,165,47,26,30,303,45,27,27,215,00*75
$GPRMC,130136.400,A,2254.75330,S,04309.54249,W,0.03,9.87,140223,23.39,W,A*11
$MXPGN,00FF00,280B,0002000005049913*19
$GPGSA,A,3,02,10,16,18,23,26,29,32,66,81,67,68,1.30,1.10,1.10*04
$MXPGN,01FF2C,7808,FFFFFFFF7FFFFFE3*10
$GPHDT,255.98,T*06
$GPGGA,,2254.75259,S,04309.54249,W,1,,,,M,,M,,*5E
$MXPGN,01F803,281C,000000000000B457*10
$AGRSA,-0.06,A,,V*64
$MXPGN,00FF3D,6808,7FFFFF0DFFFF9F41*6E
$MXPGN,00FF3D,6808,FFFFFF03FFFF9F41*68
$AGRSA,-0.66,A,,V*62
$MXPGN,00FF19,7808,0000000602009F41*11
$MXPGN,01F804,281C,00000052A6C1506D*16
$GPVTG,0.00,T,,M,0.19,N,0.35,K,A*33
$AGRSA,-0.66,A,,V*62
$MXPGN,01F803,281C,0000000000008C70*18
$MXPGN,00FF00,280B,0002000005049913*19
$MXPGN,01F804,281C,0000000371C11474*12
$TIROT,-1.19,A*2F
$MXPGN,01FF2C,7808,FF7FFFFFFFFFFFA2*15
$TIROT,-1.49,A*2A
$HCHDG,279.4,0.0,E,23.3,W*6A
$MXPGN,01F803,281C,FFFDA80000005077*1A
$MXPGN,01F804,281C,000000617EC15077*61
$MXPGN,00FF8C,6808,FFF1065DACB89F41*1F
$GPGGA,125935.000,2254.75445,S,04309.54229,W,1,12,0.70,-1.04,M,-5.60,M,,*58
$GPHDT,256.11,T*04
$AGRSA,-0.66,A,,V*62
$GPGGA,,2254.75419,S,04309.54239,W,1,,,,M,,M,,*5B
$MXPGN,01FF1A,680B,FF022B849F410540*68
$MXPGN,01F804,281C,000000602FC1007D*10
$GPGSV,2,2,08,18,39,133,36,23,56,166,46,26,30,302,41,27,26,215,00*73
$GPGLL,2254.75330,S,04309.54249,W,125935.500,A,A*59
$MXPGN,01F803,281C,000000000000147E*13
$GPGSV,3,3,12,66,53,138,36,81,45,147,29,67,62,357,43,68,12,340,38*70
$MXPGN,01F803,281C,000000000000287F*1F
$MXPGN,00FF3D,6808,7FFFFF0DFFFF9F41*6E
$GPHDT,256.03,T*07
$AGRSA,-0.66,A,,V*62
!AIVDM,1,1,,A,18VHCN0000LrMnujrklB71cp0PSP,0*7F
$MXPGN,01F803,281C,0000000000005081*68
$PSMDSTAT,R,4250,24,10,9,0,0*5B
$AGRSA,-0.66,A,,V*62
$MXPGN,01FF1A,782B,FFFAFF859F410520*19
$GPGSA,A,3,02,10,15,16,18,23,26,27,,,,,2.32,2.09,2.09*08
$MXPGN,01FA06,681C,FFFFFFFFFF01A662*6E
$HCHDG,279.3,0.0,E,23.3,W*6D
$MXPGN,00FF3C,3808,8000F9FE00009F41*1D
$GPGSV,3,3,12,66,53,138,36,81,45,147,29,67,62,357,43,68,12,340,38*70
$MXPGN,01FF2C,7808,FFFF7FFFFFFF7FE1*63
$MXPGN,00FF00,280B,0002000005049913*19
$AGRSA,-0.66,A,,V*62
$HCHDG,279.3,0.0,E,23.3,W*6D
$AGRSA,-0.66,A,,V*62
$HCHDG,279.3,0.0,E,23.3,W*6D
$MXPGN,01F803,281C,000000000000DC90*6A
$MXPGN,01F804,281C,000000A526C10091*69
$GPGSA,A,3,02,10,15,16,18,23,26,27,,,,,2.32,2.09,2.09*08
$GPGGA,125937.500,2254.75330,S,04309.54249,W,1,08,2.09,2.68,M,-5.00,M,,*79
$GPVTG,242.23,T,,M,0.01,N,0.01,K,A*38
$AGRSA,-0.66,A,,V*62
$GPGSV,3,3,12,66,53,138,37,81,45,147,29,67,62,357,43,68,12,340,38*71
$MXPGN,01FF2C,7808,FFFF7FFFFFFF7F01*16
$HCHDG,279.3,0.0,E,23.3,W*6D
$HCHDG,279.3,0.0,E,23.3,W*6D
$GPGGA,,2254.75429,S,04309.54229,W,1,,,,M,,M,,*59
$MXPGN,01F804,281C,000000BB23C18C98*6A
$MXPGN,01F803,281C,0000000000008C98*1E
$MXPGN,01F804,281C,000000BB23C19F99*6F
$PSMDSTAT,R,4175,24,4,1,0,0*62
$GPGSV,2,2,08,18,39,133,36,23,56,166,45,26,30,302,41,27,26,215,00*70
$GPGLL,2254.75330,S,04309.54249,W,125938.500,A,A*54
$AGRSA,-0.60,A,,V*64
$GPGSV,3,1,12,02,13,095,27,10,66,255,41,16,30,255,40,18,39,134,30*73
$MXPGN,01FF2C,7808,FFFFFFFF9F411720*69
$MXPGN,00FF16,7808,FF0000002B0A9F41*1B
$AGRSA,-0.60,A,,V*64
$GPGLL,2254.75429,S,04309.54229,W,,A,A*42
$GPHDT,255.94,T*0A
$GPHDT,255.93,T*0D
!AIVDO,1,1,,,B:UOH3P00?>Vt1Lf>bbSkwk5oP06,0*02
$MXPGN,01F803,281C,00000000000000A5*10
$GPGSV,2,2,08,18,39,133,36,23,56,166,45,26,30,302,41,27,26,215,00*70
$GPRMC,125939.500,A,2254.75330,S,04309.54249,W,0.00,93.13,140223,23.39,W,A*2E
$MXPGN,00FF3C,3808,8000F9FE00009F41*1D
$MXPGN,01F804,281C,0000003F7FC114A6*67
$AGRSA,-0.60,A,,V*64
$AGRSA,-0.60,A,,V*64
$PSMDSTAT,R,4232,24,10,9,0,0*5F
$GPGGA,125940.000,2254.75492,S,04309.54231,W,1,12,0.70,-1.11,M,-5.60,M,,*5D
$AGRSA,-0.60,A,,V*64
$GPGGA,,2254.75429,S,04309.54229,W,1,,,,M,,M,,*59
$HCHDG,279.2,0.0,E,23.3,W*6C
$HCHDG,279.2,0.0,E,23.3,W*6C
$MXPGN,01F803,281C,000000000000B4AE*16
$PSMDSTAT,R,4163,24,4,1,0,0*65
$MXPGN,01FA06,681C,FFFFFFFFFF01A6E2*1D
$HCHDG,279.2,0.0,E,23.3,W*6C
$AGRSA,-0.60,A,,V*64
$MXPGN,01F804,281C,000000C71CC150B3*63
$MXPGN,00FF8C,6808,FFF1065DACB89F41*1F
$GPGGA,125941.000,2254.75495,S,04309.54228,W,1,12,0.70,-1.11,M,-5.60,M,,*53
$GPHDT,255.98,T*06
$AGRSA,-0.60,A,,V*64
$GPGGA,,2254.75429,S,04309.54219,W,1,,,,M,,M,,*5A
$MXPGN,01FF1A,782B,FF010B049F4105A0*17
$MXPGN,01F804,281C,000000F2EDC18CB6*6B
$MXPGN,01F803,281C,0000000000009FB7*6E
$PSMDSTAT,R,4161,24,4,1,0,0*67
$GPGSV,2,2,08,18,39,133,35,23,56,166,45,26,30,302,42,27,26,215,00*70
$MXPGN,00FF00,280B,0002000005049913*19
$HCHDG,279.3,0.0,E,23.3,W*6D
$AGRSA,-0.12,A,,V*61
$HCHDG,279.3,0.0,E,23.3,W*6D
$PSMDSTAT,R,4251,24,10,9,0,0*5A
$GPRMC,125942.000,A,2254.75495,S,04309.54228,W,0.00,0.00,140223,23.30,W,A*19
$AGRSA,-0.30,A,,V*61
$GPGGA,,2254.75429,S,04309.54219,W,1,,,,M,,M,,*5A
$MXPGN,01FF1A,782B,FF010B049F4105C0*15
$MXPGN,01F804,281C,0000000BA6C18CC0*1C
$MXPGN,01F803,281C,0000000000009FC1*69
$MXPGN,01F803,281C,00000000000000C1*16
$AGRSA,0.44,A,,V*4F
$MXPGN,00FF3D,6808,7FFFFF0DFFFF9F41*6E
$AGRSA,0.14,A,,V*4A
!AIVDO,1,1,,,B:UOH3P00?>Vt1Lf>bbSkwm5oP06,0*04
$MXPGN,01F804,281C,0000004056C178C7*6D
$AGRSA,-0.24,A,,V*64
!AIVDM,1,1,,B,1:U7;pPP00LrGtmjpjQ6FOwD28I;,0*32
$TIROT,-0.69,A*29
$AGRSA,-0.24,A,,V*64
$TIROT,-0.89,A*27
$MXPGN,01F803,281C,000000000000B4CA*10
$MXPGN,00FF00,280B,0002000005049913*19
$GPVTG,27.39,T,,M,0.00,N,0.00,K,A*02
$GPGSA,A,3,02,10,16,18,23,26,29,32,66,81,67,68,1.30,1.10,1.10*04
$GPGSV,3,3,12,66,53,138,36,81,45,147,29,67,62,357,43,68,12,340,39*71
$MXPGN,01F803,281C,00000000000028CF*6B
$TIROT,0.00,A*0B
$MXPGN,01F804,281C,0000004144C13BD0*11
!AIVDM,1,1,,B,1:U8hK0P00Lr>1ujr?KP6?wp0`I@,0*2F
$MXPGN,00FF19,7808,0000000602009F41*11
$MXPGN,01F804,281C,000000A0C1C150D1*62
$PSMDSTAT,R,4221,24,10,9,0,0*5D
$GPVTG,0.00,T,,M,0.19,N,0.35,K,A*33
$AGRSA,0.14,A,,V*4A
$MXPGN,01F804,281C,00000056BCC100D7*60
$GPGSV,2,2,08,18,39,133,36,23,56,166,46,26,30,302,43,27,26,215,00*71
$GPGLL,2254.75330,S,04309.54240,W,125944.500,A,A*56
$MXPGN,01F803,281C,00000000000014D8*1D
$PSMDNC,R,C0F08200E8378F9B,11*0A
$GPGSV,3,2,12,23,57,167,37,26,31,303,25,29,24,046,35,32,29,001,33*7F
$MXPGN,01FF2C,7808,FFFFFFFF9F4117E0*1E
$MXPGN,00FF3D,6808,7FFFFF0DFFFF9F41*6E
$MXPGN,01F803,281C,0000000000003BDA*10
$HCHDG,279.7,0.0,E,23.3,W*69
!AIVDM,1,1,,B,1:U7GeSP00LrH55jplO2u?wJ25Sd,0*57
$AGRSA,0.29,A,,V*44
$MXPGN,01FA06,681C,7700AC00C8E10F80*6F
$GPGLL,2254.75330,S,04309.54240,W,125945.500,A,A*57
$TIROT,-1.29,A*2C
$GPGSV,3,2,12,23,57,167,37,26,31,303,25,29,24,046,35,32,29,001,33*7F
$HCHDG,279.7,0.0,E,23.3,W*69
$MXPGN,01F803,281C,00000000000028E3*18
$HCHDG,279.7,0.0,E,23.3,W*69
$HCHDG,279.7,0.0,E,23.3,W*69
$HCHDG,279.8,0.0,E,23.3,W*66
$MXPGN,01F803,281C,000000000000B4EA*16
$MXPGN,00FF00,280B,0002000005049913*19
$GPGGA,125946.500,2254.75330,S,04309.54240,W,1,08,2.09,2.68,M,-5.00,M,,*76
$AGRSA,0.29,A,,V*44
$GPGSV,3,1,12,02,13,095,28,10,66,255,42,16,30,255,41,18,39,133,30*79
$HCHDG,279.8,0.0,E,23.3,W*66
$MXPGN,01F804,281C,000000261FC128ED*69
$MXPGN,00FF00,280B,0002000005049913*19
$HCHDG,279.8,0.0,E,23.3,W*66
$AGRSA,0.44,A,,V*4F
$MXPGN,01FF1A,680B,FF022B849F410500*6C
$MXPGN,01F803,281C,0000000000008CF2*6B
$HCHDG,279.8,0.0,E,23.3,W*66
$MXPGN,01FF1A,680B,FF022B849F410500*6C
$MXPGN,01F803,281C,00000000000000F5*17
$MXPGN,01FA06,681C,008200A3113600C1*13
$GPGLL,2254.75330,S,04309.54240,W,125947.500,A,A*55
$GPHDT,256.48,T*08
$GPGGA,125948.000,2254.75561,S,04309.54229,W,1,12,0.70,-1.76,M,-5.60,M,,*50
$ERRPM,E,0,543.00,,A*5C
$AGRSA,0.29,A,,V*44
$GPGSA,A,,,,,,,,,,,,,,,,*2F
$AGRSA,0.39,A,,V*45
$MXPGN,00FF00,280B,0002000005049913*19
$TIROT,-2.29,A*2F
$MXPGN,01F804,281C,0000004C41C19F02*1E
$MXPGN,01F803,281C,0000000000000002*66
$GPGSV,2,1,08,02,12,095,35,10,66,255,49,15,12,134,00,16,29,254,43*7E
$MXPGN,00FF19,7808,0000000602009F41*11
$MXPGN,01FE10,2872,0000000000000000*6C
$MXPGN,01F803,281C,0000000000007808*63
$GPGLL,2254.75561,S,04309.54222,W,125949.000,A,A*58
!AIVDO,1,1,,,B:UOH3P00?>Vt1Lf>bfSkwp5oP06,0*1D
$AGRSA,0.34,A,,V*48
$ERRPM,E,0,586.00,,A*55
$MXPGN,01F804,281C,0000002072C1B40B*12
$ERRPM,E,0,536.00,,A*5E
$MXPGN,01FF0D,780B,FF03000098900560*60
$MXPGN,01F804,281C,0000007F13C1DC0D*11
$ERRPM,E,0,592.00,,A*50
$VDVBW,0.00,,A,,,A,,A,,A*4F
$MXPGN,00FF19,7808,0000000602009F41*11
$ERRPM,E,0,567.00,,A*5A
$MXPGN,01F804,281C,0000002224C15012*11
$GPHDT,256.52,T*03
$AGRSA,0.34,A,,V*48
$MXPGN,01FE10,2872,0000000000000000*6C
$MXPGN,01F803,281C,0000000000008C15*1B
$MXPGN,01F205,2872,00000AAB00000100*6C
$MXPGN,01FF0D,780B,FF03000098900580*6E
$MXPGN,00FF3D,6808,7FFFFF0DFFFF9F41*6E
$AGRSA,0.29,A,,V*44
$AGRSA,0.29,A,,V*44
$MXPGN,01F804,281C,0000008746C1501C*6B
$GPHDT,256.50,T*01
$MXPGN,01F205,2872,00000AAB00000100*6C
$MXPGN,00FF00,280B,0002000005049913*19
$GPHDT,256.50,T*01
$AGRSA,0.29,A,,V*44
$TIROT,-0.99,A*26
$GPGLL,2254.75409,S,04309.54219,W,,A,A*43
$GPGSA,A,3,02,10,16,18,23,26,29,32,66,81,67,68,1.30,1.10,1.10*04
$HCHDG,256.6,0.0,E,0.0,E*45
$AGRSA,0.49,A,,V*42
$MXPGN,00FF16,7808,FF0000002B0A9F41*1B
$ERRPM,E,0,666.00,,A*58
$TIROT,-1.29,A*2C
$VDVBW,0.00,,A,,,A,,A,,A*4F
$MXPGN,00FF19,7808,0000000602009F41*11
$MXPGN,01FF1A,782B,FF010B049F410540*62
$MXPGN,01F804,281C,00000060D8C15026*6A
$PSMDSTAT,R,4761,26,10,9,0,0*5E
$GPVTG,0.00,T,,M,0.09,N,0.16,K,A*33
$AGRSA,0.29,A,,V*44
$MXPGN,00FF00,280B,0002000005049913*19
$MXPGN,01FA06,681C,FFFFFFFFFF01A662*6E
$GPRMC,125952.500,A,2254.75330,S,04309.54240,W,0.03,289.93,140223,23.39,W,A*18
$AGRSA,0.29,A,,V*44
$GPGSV,3,1,12,02,13,095,29,10,66,255,41,16,30,255,41,18,39,133,28*72
$AGRSA,0.29,A,,V*44
$MXPGN,01FF2C,7808,FFFFFFFF7FFFFFE3*10
$ERRPM,E,0,597.00,,A*55
$TIROT,-0.39,A*2C
$MXPGN,01F803,281C,0000000000005030*62
$VDVBW,0.00,,A,,,A,,A,,A*4F
$AGRSA,0.14,A,,V*4A
$GPGSV,2,1,08,02,12,095,34,10,66,254,47,15,12,134,00,16,29,254,42*71
$GPRMC,125953.500,A,2254.75330,S,04309.54240,W,0.00,179.00,140223,23.39,W,A*1C
$MXPGN,01FE10,2872,0000000000000000*6C
$MXPGN,01F804,281C,0000007A0BC11437*14
$GPHDT,256.64,T*06
$MXPGN,01FF2C,7808,FFFFFFFF9F411700*6B
$MXPGN,00FF3D,6808,7FFFFF0DFFFF9F41*6E
$MXPGN,01FE10,2872,0000000000000000*6C
$AGRSA,0.34,A,,V*48
$TIROT,-0.99,A*26
$MXPGN,01F205,2872,00000AAB00000100*6C
$HCHDG,279.9,0.0,E,23.3,W*67
$PSMDSTAT,R,4157,25,4,1,0,0*63
$MXPGN,01FA06,681C,7700AC00C83E0FA0*14
$GPVTG,164.46,T,,M,0.05,N,0.09,K,A*30
$MXPGN,01F205,2872,00000AAB00000100*6C
$GPGSV,3,2,12,23,56,167,36,26,31,303,23,29,24,046,34,32,29,001,36*7D
$MXPGN,01FF2C,7808,FFFFFFFF9F411720*69
$MXPGN,00FF16,7808,FF0000002B0A9F41*1B
$GPGGA,,2254.75399,S,04309.54229,W,1,,,,M,,M,,*55
$GPHDT,256.75,T*06
$MXPGN,01F803,281C,000257000000C848*13
$MXPGN,01F205,2872,00000AAB00000100*6C
$TIROT,-0.59,A*2A
$PSMDSTAT,R,4156,25,4,1,0,0*62
$MXPGN,01FA06,681C,7700AC00C84A0FC0*15
$GPVTG,329.14,T,,M,0.01,N,0.01,K,A*30
$MXPGN,01F205,2872,00000AAB00000100*6C
$GPGSA,A,3,02,10,16,18,23,26,29,32,66,81,67,68,1.30,1.10,1.10*04
$AGRSA,0.29,A,,V*44
$GPGGA,,2254.75399,S,04309.54229,W,1,,,,M,,M,,*55
$HCHDG,280.1,0.0,E,23.3,W*69
$MXPGN,01F803,281C,0000000000008C51*1B
$ERRPM,E,0,584.00,,A*57
$HCHDG,280.1,0.0,E,23.3,W*69
$MXPGN,01F804,281C,000000E855C10054*6D
$GPGSV,2,1,08,02,12,095,34,10,66,254,48,15,12,134,00,16,29,254,43*7F
$GPGLL,2254.75330,S,04309.54229,W,125956.500,A,A*5A
$ERRPM,E,0,564.00,,A*59
$AGRSA,0.20,A,,V*4D
$GPGGA,125957.000,2254.75722,S,04309.54186,W,1,12,0.70,-0.32,M,-5.60,M,,*5C
$GPHDT,256.82,T*0E
$AGRSA,0.20,A,,V*4D
$ERRPM,E,0,602.00,,A*5A
$MXPGN,01F804,281C,FFFF9D2E4AC18C5B*62
$GPHDT,256.83,T*0F
$TIROT,-0.59,A*2A
!AIVDO,1,1,,,B:UOH3P00?>Vt1Lf>brSkwt5oP06,0*0D
$AGRSA,0.29,A,,V*44
$ERRPM,E,0,560.00,,A*5D
$MXPGN,01F803,281C,0000000000005062*65
$TIROT,-0.19,A*2E
$MXPGN,00FF8C,6808,FFF1065DACB89F41*1F
$MXPGN,00FF00,280B,0002000005049913*19
$GPHDT,256.86,T*0A
$AGRSA,0.24,A,,V*49
$GPGSA,A,,,,,,,,,,,,,,,,*2F
$GPGLL,2254.75379,S,04309.54229,W,,A,A*40
$MXPGN,00FF00,280B,0002000005049913*19
$GPHDT,256.85,T*09
$MXPGN,01F205,2872,00000AAB00000100*6C
$HCHDG,280.1,0.0,E,23.3,W*69
$VDVBW,0.00,,A,,,A,,A,,A*4F
$MXPGN,01F804,281C,0000003D77C1506C*16
$MXPGN,01FF1A,782B,FF010B049F410520*64
$MXPGN,01F205,2872,00000AAB00000100*6C
$MXPGN,00FF00,280B,0002000005049913*19
$GPHDT,256.84,T*08
$AGRSA,0.59,A,,V*43
$GPGSA,A,,,,,,,,,,,,,,,,*2F
$GPVTG,262.00,T,,M,0.00,N,0.00,K,A*3B
$GPGSA,A,3,02,10,16,18,23,26,29,32,66,81,67,68,1.30,1.10,1.10*04
$AGRSA,0.44,A,,V*4F
$MXPGN,00FF3D,6808,7FFFFF0DFFFF9F41*6E
$MXPGN,01F205,2872,00000AAB00000100*6C
$MXPGN,00FF1E,5872,00FF043ADD809890*6A
$MXPGN,01F803,281C,0000000000005076*60
$HCHDG,280.2,0.0,E,23.3,W*6A
$AGRSA,0.29,A,,V*44
$PSMDSTAT,R,4788,25,10,9,0,0*5A
$HCHDG,280.2,0.0,E,23.3,W*6A
$AGRSA,0.29,A,,V*44
$HCHDG,280.2,0.0,E,23.3,W*6A
$MXPGN,00FF3C,3808,8000F9FE00009F41*1D
$GPGSV,3,2,12,23,56,167,36,26,31,303,24,29,24,046,34,32,29,001,37*7B
$MXPGN,01FF2C,7808,FF7FFFFFFFFFFFE2*11
$GPHDT,256.92,T*0F
$MXPGN,01F205,2872,00000AAB00000100*6C
$TIROT,0.89,A*0A
$ERRPM,E,0,607.00,,A*5F
$MXPGN,01FF1A,680B,FF022B849F4105A0*1D
$HCHDG,280.2,0.0,E,23.3,W*6A
$MXPGN,01F205,2872,00000AAB00000100*6C
$HCHDG,280.2,0.0,E,23.3,W*6A
$MXPGN,01F804,281C,0000002FF8C10086*15
$MXPGN,01FA06,681C,008200A4113E0081*1C
$GPHDT,256.92,T*0F
$AGRSA,0.34,A,,V*48
$GPGSV,3,1,12,02,13,095,27,10,66,255,40,16,30,255,41,18,39,133,27*72
$MXPGN,01FF2C,7808,FFFF7FFFFFFF7F01*16
$MXPGN,00FF3D,6808,7FFFFF0DFFFF9F41*6E
$MXPGN,01F205,2872,00000AAB00000100*6C
$ERRPM,E,0,582.00,,A*51
$HCHDG,280.3,0.0,E,23.3,W*6B
$MXPGN,01F205,2872,00000AAB00000100*6C
$AGRSA,0.34,A,,V*48
$MXPGN,01F803,281C,0000000000000090*6D
$MXPGN,01FA06,681C,008200A4113E00A1*65
$GPRMC,130002.500,A,2254.75330,S,04309.54229,W,0.00,287.58,140223,23.39,W,A*15
$AGRSA,0.39,A,,V*45
$GPHDT,256.93,T*0E
$ERRPM,E,0,612.00,,A*5B
$MXPGN,01FF2C,7808,FF7FFFFFFFFFFF22*66
$HCHDG,280.2,0.0,E,23.3,W*6A
$AGRSA,0.24,A,,V*49
$GPHDT,256.93,T*0E
$MXPGN,01FF0D,780B,FF03000098900520*64
$GPHDT,256.93,T*0E
$MXPGN,01F804,281C,0000006A81C1009A*17
$MXPGN,01FA06,681C,7700AC00C89A0FC0*18
$GPGLL,2254.75330,S,04309.54229,W,130003.500,A,A*57
$TIROT,0.39,A*01
$MXPGN,00FF3C,3808,8000F9FE00009F41*1D
$GPGSA,A,3,02,10,16,18,23,26,29,32,66,81,67,68,1.30,1.10,1.10*04
$GPGSA,A,,,,,,,,,,,,,,,,*2F
$GPGGA,,2254.75349,S,04309.54239,W,1,,,,M,,M,,*59
$TIROT,0.00,A*0B
$MXPGN,01F803,281C,0000000000009FA2*68
$MXPGN,01F205,2872,00000AAB00000100*6C
$MXPGN,01F803,281C,FFFDA9000000B4A3*1A
$ERRPM,E,0,564.00,,A*59
$GPGSV,2,1,08,02,12,095,35,10,66,254,48,15,12,134,00,16,29,254,43*7E
$GPGGA,130004.500,2254.75330,S,04309.54240,W,1,08,2.09,2.55,M,-5.00,M,,*73
$VWVHW,,T,,M,0.00,N,0.00,K*54
$MXPGN,00FF00,280B,0002000005049913*19
$HCHDG,280.2,0.0,E,23.3,W*6A
$AGRSA,0.29,A,,V*44
$MXPGN,01FE10,2872,0000000000000000*6C
$GPVTG,262.00,T,,M,0.00,N,0.00,K,A*3B
$ERRPM,E,0,580.00,,A*53
$HCHDG,280.2,0.0,E,23.3,W*6A
$MXPGN,01FF0D,780B,FF03000098900560*60
$GPHDT,256.93,T*0E
$PSMDSTAT,R,4151,25,10,1,0,0*50
$MXPGN,01FA06,681C,7700AC00C8AE0F00*17
$GPVTG,250.31,T,,M,0.01,N,0.01,K,A*38
!AIVDM,1,1,,B,1:U7GeSP00LrH4qjplP2Bgv:2@34,0*56
$MXPGN,00FF19,7808,0000000602009F41*11
$ERRPM,E,0,575.00,,A*59
$PSMDSTAT,R,4872,25,12,9,0,0*52
$HCHDG,280.3,0.0,E,23.3,W*6B
$MXPGN,01F205,2872,00000AAB00000100*6C
$AGRSA,0.34,A,,V*48
$GPHDT,256.97,T*0A
$GPVTG,262.00,T,,M,0.00,N,0.00,K,A*3B
$MXPGN,01F205,2872,00000AAB00000100*6C
$HCHDG,280.3,0.0,E,23.3,W*6B
$MXPGN,01F803,281C,0000000000009FB6*6F
$HCHDG,280.2,0.0,E,23.3,W*6A
$AGRSA,0.34,A,,V*48
$MXPGN,01F804,281C,0000007BD0C178BC*1E
$MXPGN,01FF1A,782B,FF010B049F410520*64
$MXPGN,01F205,2872,00000AAB00000100*6C
$GPRMC,130007.000,A,2254.75822,S,04309.54228,W,0.00,0.00,140223,23.30,W,A*15
$MXPGN,01F205,2872,00000AAB00000100*6C
$MXPGN,00FF00,280B,0002000005049913*19
$MXPGN,01FE10,2872,0000000000000000*6C
$GPGLL,2254.75349,S,04309.54239,W,,A,A*42
$HCHDG,280.2,0.0,E,23.3,W*6A
$GPZDA,130006.340,14,02,2023,,*51
$HCHDG,280.3,0.0,E,23.3,W*6B
$MXPGN,00FF00,280B,0002000005049913*19
$VDVBW,0.00,,A,,,A,,A,,A*4F
$MXPGN,00FF19,7808,0000000602009F41*11
$MXPGN,00FF19,7808,0080000A0A009F41*1D
$MXPGN,01F804,281C,0000000891C150C6*61
$PSMDSTAT,R,5045,25,10,9,0,0*5D
$HCHDG,280.3,0.0,E,23.3,W*6B
$MXPGN,00FF00,280B,0002000005049913*19
$TIROT,1.49,A*07
$MXPGN,01F804,281C,0000007AB7C18CC9*13
$GPHDT,256.96,T*0B
$GPGSV,3,2,12,23,56,167,36,26,31,303,25,29,24,045,35,32,29,001,36*79
$MXPGN,01F803,281C,00000000000028CE*68
$MXPGN,00FF3D,6808,0000FF0BFFFF9F41*19
!AIVDO,1,1,,,B:UOH3P00?>Vt0Lf>c6SkwSUoP06,0*0E
$HCHDG,280.2,0.0,E,23.3,W*6A
$MXPGN,01F803,281C,00000000000050D0*15
$MXPGN,00FF19,7808,0000000602009F41*11
$GPHDT,256.90,T*0D
$MXPGN,01F804,281C,0000009F42C150D0*19
$AGRSA,0.34,A,,V*48
$MXPGN,01FA06,681C,008200A411410081*6F
$GPGLL,2254.75330,S,04309.54240,W,130009.500,A,A*52
$VWVHW,,T,,M,0.00,N,0.00,K*54
$MXPGN,01F205,2872,00000AAB00000100*6C
$MXPGN,01FF06,380B,0001B112FC000021*69
$MXPGN,01FF2C,7808,FF7FFFFFFFFFFF02*64
$MXPGN,01F205,2872,00000AAB00000100*6C
$MXPGN,00FF00,280B,0002000005049913*19
$GPHDT,256.84,T*08
$MXPGN,01FF06,380B,801101FF99130F40*67
$MXPGN,01FF06,380B,801401FF99130F80*6E
$MXPGN,01F205,2872,00000AAB00000100*6C
$GPGSA,A,3,02,10,15,16,18,23,26,27,,,,,2.32,2.09,2.09*08
$MXPGN,01FE10,2872,0000000000000000*6C
$HCHDG,280.1,0.0,E,23.3,W*69
$ERRPM,E,0,581.00,,A*52
$GPGSV,3,1,12,02,13,095,26,10,66,255,41,16,30,255,41,18,39,133,26*73
$MXPGN,01FF06,380B,00007702FC0101A1*69
$MXPGN,01F804,281C,0000004E71C128E2*1B
$MXPGN,01F205,2872,00000AAB00000100*6C
$AGRSA,0.29,A,,V*44
$HCHDG,280.1,0.0,E,23.3,W*69
$MXPGN,01F803,281C,0000000000009FE8*66
$HCHDG,280.0,0.0,E,23.3,W*68
$GPGSA,A,3,02,10,15,16,18,23,26,27,,,,,2.32,2.09,2.09*08
$MXPGN,01FA06,681C,FFFFFFFFFF01A7C2*1A
$GPRMC,130011.500,A,2254.75330,S,04309.54240,W,0.00,312.38,140223,23.39,W,A*13
$MXPGN,00FF3C,3808,8000F9FE00009F41*1D
$GPHDT,256.73,T*00
$GPGSV,3,3,12,66,53,139,36,81,45,146,35,67,63,357,44,68,13,340,39*7B
$GPGGA,,2254.75349,S,04309.54219,W,1,,,,M,,M,,*5B
$ERRPM,E,0,601.00,,A*59
$MXPGN,01F803,281C,0000000000008CF1*68
$MXPGN,00FF00,280B,0002000005049913*19
$MXPGN,01F205,2872,00000AAB00000100*6C
$MXPGN,01F804,281C,0000008E2DC100F2*6E
$MXPGN,01FE10,2872,0000000000000000*6C
$GPRMC,130012.400,A,2254.75330,S,04309.54240,W,0.00,208.53,140223,23.39,W,A*16
$AGRSA,0.20,A,,V*4D
$HCHDG,280.0,0.0,E,23.3,W*68
$GPGGA,130013.000,2254.75728,S,04309.54280,W,1,12,0.70,1.57,M,-5.60,M,,*71
$MXPGN,01F804,281C,000063033DC1A0FA*16
$GPHDT,256.68,T*0A
$GPGLL,2254.75349,S,04309.54219,W,,A,A*40
!AIVDM,1,1,,B,1:U6vLPP01trHfmjpdh;ggvH25`0,0*77
$MXPGN,01F205,2872,00000AAB00000100*6C
$AGRSA,0.14,A,,V*4A
$AGRSA,0.14,A,,V*4A
$MXPGN,01FA06,681C,7700AC00C8030F00*10
$MXPGN,00FF8C,6808,FFF1065DACB89F41*1F
$MXPGN,01F205,2872,00000AAB00000100*6C
$GPGGA,130014.000,2254.75705,S,04309.54283,W,1,12,0.70,1.24,M,-5.60,M,,*7E
$MXPGN,01F803,281C,0000000000007809*62
$GPHDT,256.62,T*00
$MXPGN,01F803,281C,0000000000008C0A*6E
$GPZDA,130014.280,14,02,2023,,*5F
$TIROT,1.09,A*03
$AGRSA,0.14,A,,V*4A
$MXPGN,01F803,281C,000000000000000D*10
$GPGSV,2,1,08,02,12,095,36,10,66,254,48,15,12,134,00,16,29,254,43*7D
$MXPGN,01F803,281C,0000000002575011*61
$MXPGN,01FE10,2872,0000000000000000*6C
!AIVDM,1,1,,B,3:U7@mA000trOl9jsj2IuPBL0DWJ,0*44
$MXPGN,01F803,281C,0000000002575011*61
$TIROT,0.89,A*0A
$GPGGA,130015.000,2254.75688,S,04309.54280,W,1,12,0.70,1.24,M,-5.60,M,,*78
$MXPGN,01F804,281C,000000BEBBC17813*1B
$TIROT,0.89,A*0A
$ERRPM,E,0,582.00,,A*51
$GPZDA,130015.280,14,02,2023,,*5E
$HCHDG,279.8,0.0,E,23.3,W*66
$MXPGN,01F804,281C,000000536DC13B1A*64
$MXPGN,00FF00,280B,0002000005049913*19
$VDVBW,0.00,,A,,,A,,A,,A*4F
$MXPGN,01FE10,2872,0000000000000000*6C
$MXPGN,00FF8C,6808,FFF1065DACB89F41*1F
$MXPGN,01F804,281C,000000CFA7C1501B*14
$PSMDSTAT,R,4777,25,10,9,0,0*5A
$GPGGA,130016.000,2254.75667,S,04309.54288,W,1,12,0.70,1.17,M,-5.60,M,,*72
$MXPGN,01F804,281C,000000CFA7C1781D*18
$TIROT,0.19,A*03
$ERRPM,E,0,587.00,,A*54
$MXPGN,01F803,281C,0000000000009F1F*6C
$MXPGN,01FF2C,7808,FFFFFFFF9F4117E0*1E
$MXPGN,01FE10,2872,0000000000000000*6C
!AIVDM,1,1,,A,1:U=<5wP00trH?9jq@lqw?vP2<2V,0*61
$ERRPM,E,0,555.00,,A*5B
$AGRSA,0.14,A,,V*4A
$MXPGN,01F803,281C,0000000000005025*66
$MXPGN,01FE10,2872,0000000000000000*6C
$TIROT,0.29,A*00
$MXPGN,01F804,281C,000000763DC15025*65
$GPGGA,130017.000,2254.75648,S,04309.54306,W,1,12,0.70,1.44,M,-5.60,M,,*7F
$MXPGN,01F804,281C,000000763DC16426*61
$GPGGA,130017.500,2254.75319,S,04309.54240,W,1,08,2.09,2.68,M,-5.00,M,,*74
$GPHDT,256.39,T*0E
$MXPGN,00FF3C,3808,8000F9FE00009F41*1D
$GPHDT,256.40,T*00
$MXPGN,00FF00,280B,0002000005049913*19
$MXPGN,01F803,281C,0000000000003C2D*62
$HCHDG,279.7,0.0,E,23.3,W*69
$HCHDG,279.7,0.0,E,23.3,W*69
$VDVBW,0.00,,A,,,A,,A,,A*4F
$MXPGN,01F804,281C,0000004D0FC1502E*65
$MXPGN,01FE10,2872,0000000000000000*6C
$TIROT,0.39,A*01
$HCHDG,279.7,0.0,E,23.3,W*69
$MXPGN,01FE10,2872,0000000000000000*6C
$MXPGN,01FA06,681C,008300A4114500A1*13
$HCHDG,279.7,0.0,E,23.3,W*69
$MXPGN,01F803,281C,0002580000001434*69
$GPGSV,3,1,12,02,13,095,24,10,66,255,42,16,30,255,41,18,39,133,28*7C
$MXPGN,01FF2C,7808,FF7FFFFFFFFFFF22*66
$MXPGN,01F205,2872,00000AAB00000100*6C
$AGRSA,0.05,A,,V*4A
$HCHDG,279.6,0.0,E,23.3,W*68
$MXPGN,00FF00,280B,0002000005049913*19
$MXPGN,01F803,281C,000000000000003F*11
$MXPGN,01FA06,681C,008300A4114700C1*13
$GPGLL,2254.75319,S,04309.54249,W,130019.500,A,A*51
$VWVHW,,T,,M,0.00,N,0.00,K*54
$ERRPM,E,0,570.00,,A*5C
$GPGSV,3,1,12,02,13,095,24,10,66,255,42,16,30,255,41,18,39,133,28*7C
$MXPGN,01FF2C,7808,FF7FFFFFFFFFFF42*60
$MXPGN,01F205,2872,00000AAB00000100*6C
$HCHDG,279.7,0.0,E,23.3,W*69
$ERRPM,E,0,591.00,,A*53
$AGRSA,0.00,A,,V*4F
$HCHDG,279.7,0.0,E,23.3,W*69
$PSMDSTAT,R,3307,25,9,1,0,0*6E
$MXPGN,01FE10,2872,0000000000000000*6C
$GPGLL,2254.75319,S,04309.54249,W,130020.500,A,A*5B
$TIROT,-0.09,A*2F
$MXPGN,01F804,281C,0000003CECC1144A*17
$MXPGN,01F205,2872,00000AAB00000100*6C
$ERRPM,E,0,577.00,,A*5B
$GPGLL,2254.75359,S,04309.54219,W,,A,A*41
$MXPGN,01F205,2872,00000AAB00000100*6C
$ERRPM,E,0,566.00,,A*5B
$VDVBW,0.00,,A,,,A,,A,,A*4F
$MXPGN,01F205,2872,00000AAB00000100*6C
$PSMDSTAT,R,3339,25,9,1,0,0*63
$MXPGN,01FA06,681C,008300A411470001*60
$GPRMC,130021.500,A,2254.75319,S,04309.54249,W,0.01,263.16,140223,23.39,W,A*18
$AGRSA,0.00,A,,V*4F
$ERRPM,E,0,585.00,,A*56
$HCHDG,279.7,0.0,E,23.3,W*69
$GPGGA,130022.000,2254.75648,S,04309.54285,W,1,12,0.70,0.98,M,-5.60,M,,*73
$AGRSA,0.00,A,,V*4F
$MXPGN,01F205,2872,00000AAB00000100*6C
$GPVTG,262.00,T,,M,0.00,N,0.00,K,A*3B
$ERRPM,E,0,585.00,,A*56
$MXPGN,01F804,281C,0000636F47C19F5B*6F
$MXPGN,01FF0D,780B,FF03000098900580*6E
$ERRPM,E,0,577.00,,A*5B
$AGRSA,0.05,A,,V*4A
$GPGSV,2,1,08,02,12,095,36,10,66,254,48,15,12,134,00,16,29,254,42*7C
$MXPGN,00FF19,7808,0000000602009F41*11
$HCHDG,279.7,0.0,E,23.3,W*69
