$MXPGN,01F803,281C,0009600002577854*65
$MXPGN,01F804,281C,000000329FC17854*61
$MXPGN,01FE10,2872,0000000000000000*6C
$GPHDT,78.02,T*38
$TIROT,19.59,A*3F
$ERRPM,E,0,586.00,,A*55
$MXPGN,01F205,2872,00000AAB00000000*6D
$MXPGN,00FF19,7808,0000000202009F41*15
$MXPGN,00FF19,7808,0080000A0A009F41*1D
$AGRSA,-3.68,A,,V*6F
$GPZDA,124659.280,03,05,2023,,*54
$MXPGN,01F803,281C,000BB80002578C55*17
$MXPGN,01F804,281C,000000329FC18C55*14
!AIVDM,1,1,,A,1:U7?1AP2DtrPiqjpgprugwn2D2O,0*17
$GPGSA,A,3,01,03,04,08,16,21,26,28,66,82,76,81,1.30,1.20,1.20*06
$GPGSV,3,1,12,01,62,232,46,03,30,216,39,04,32,278,38,08,12,337,43*7B
$GPGSV,3,2,12,16,04,026,35,21,72,323,40,26,14,057,38,28,35,129,39*7E
$GPGSV,3,3,12,66,18,137,45,82,54,261,38,76,18,123,45,81,40,342,39*79
$MXPGN,00FF8C,6808,FFF107147AD89F41*18
$MXPGN,00FF3C,3808,8000F8FE00009F41*1C
$GPHDT,78.06,T*3C
$TIROT,19.59,A*3F
$ERRPM,E,0,591.00,,A*53
$MXPGN,01F205,2872,00000AAB00000000*6D
$MXPGN,01FF0D,780B,FF03000098900500*66
$VDVBW,0.00,,A,,,A,,A,,A*4F
$AGRSA,-3.68,A,,V*6F
$MXPGN,00FF00,280B,0002000005049913*19
$MXPGN,01F803,281C,000BB80002578C55*17
$MXPGN,01F804,281C,000000329FC18C55*14
!AIVDM,2,1,4,A,5:U7?Ap2Fp>q1GK7WD08DhuJ0QDl4U@40000000R1pJ56<@`07DRCp11H2PC,0*5A
!AIVDM,2,2,4,A,QBDSh000000,2*7C
$MXPGN,01FE10,2872,0000000000000000*6C
$MXPGN,00FF16,7808,FF0000002B0A9F41*1B
$GPHDT,78.06,T*3C
$TIROT,19.59,A*3F
$ERRPM,E,0,576.00,,A*5A
$MXPGN,01F205,2872,00000AAB00000000*6D
!AIVDM,1,1,,A,3:U7@rCP0pLrNdmjrgg2igv2032Q,0*55
$AGRSA,-3.68,A,,V*6F
$SDDPT,6.33,0.00,*7D
$MXPGN,01FF1A,782B,FFFAFF859F410500*1B
$MXPGN,01F803,281C,000E100004AFB457*67
$MXPGN,01F804,281C,00000032C7C1B457*10
$GPHDT,78.09,T*33
$TIROT,18.39,A*38
$VWVHW,,T,,M,0.00,N,0.00,K*54
$ERRPM,E,0,578.00,,A*54
$MXPGN,01F205,2872,00000AAB00000000*6D
$GPGSA,A,3,01,03,04,08,09,10,16,21,26,,,,1.66,1.39,1.39*05
$GPGSV,3,1,09,01,62,231,48,03,30,215,46,04,32,277,47,08,11,336,43*72
$GPGSV,3,2,09,09,03,290,38,10,02,075,40,16,04,025,38,21,71,322,47*74
$GPGSV,3,3,09,26,13,057,41*41
$MXPGN,01FA06,681C,7B009B00C8580FC0*61
$MXPGN,01FA06,681C,007B009BF48500C1*1F
$MXPGN,01FA06,681C,FFFFFFFFFF0122C2*6C
$GPGGA,124700.500,2254.72019,S,04309.54759,W,1,09,1.39,-4.06,M,-5.00,M,,*5B
$GPGLL,2254.72019,S,04309.54759,W,124700.500,A,A*5B
$GPRMC,124700.500,A,2254.72019,S,04309.54759,W,2.15,74.24,030523,23.41,W,A*25
$GPVTG,74.24,T,,M,2.15,N,3.98,K,A*0C
$AGRSA,-3.68,A,,V*6F
$MXPGN,01F803,281C,0000000000000058*69
$MXPGN,01F804,281C,00000032C7C10058*69
$GPGSA,A,,,,,,,,,,,,,,,,*2F
$MXPGN,01FE10,2872,0000000000000000*6C
$GPHDT,78.10,T*3B
$MXPGN,01F803,281C,0004B0000000505C*61
$MXPGN,01F804,281C,00000034A7C1505C*13
$GPGGA,124701.000,2254.72024,S,04309.54663,W,1,12,0.60,-2.42,M,-5.60,M,,*5E
$GPGLL,2254.72024,S,04309.54663,W,124701.000,A,A*59
$GPRMC,124701.000,A,2254.72024,S,04309.54663,W,2.39,76.19,030523,23.32,W,A*21
$GPVTG,76.19,T,,M,2.39,N,4.42,K,A*0E
$GPHDT,78.15,T*3E
$TIROT,13.49,A*34
$MXPGN,00FF00,280B,0002000005049913*19
$ERRPM,E,0,578.00,,A*54
$MXPGN,01F205,2872,00000AAB00000000*6D
$GPGGA,,21444.9018,N,21444.90188,E,1,,,,M,,M,,*54
$GPGLL,21444.9018,N,21444.90188,E,,A,A*4F
$GPVTG,,T,,M,,N,,K,A*23
$AGRSA,-3.68,A,,V*6F
$MXPGN,01F803,281C,000708000258785E*1B
$MXPGN,01F804,281C,FFFF9D3478C1785E*1B
!AIVDM,1,1,,B,1:UUFl001;LrMTajqW;FH584080f,0*56
$MXPGN,01FE10,2872,0000000000000000*6C
$GPHDT,78.14,T*3F
$TIROT,11.29,A*30
$ERRPM,E,0,569.00,,A*54
$MXPGN,01F205,2872,00000AAB00000000*6D
$MXPGN,00FF19,7808,0000000202009F41*15
$MXPGN,00FF19,7808,0080000A0A009F41*1D
$AGRSA,-3.68,A,,V*6F
$GPZDA,124700.280,03,05,2023,,*59
$MXPGN,01F803,281C,0009600002588C5F*6C
$MXPGN,01F804,281C,FFFF9D3478C18C5F*6C
$GPGSA,A,3,01,03,04,08,16,21,26,28,66,82,76,81,1.30,1.20,1.20*06
$GPGSV,3,1,12,01,62,232,46,03,30,216,39,04,32,278,38,08,12,337,43*7B
$GPGSV,3,2,12,16,04,026,35,21,72,323,39,26,14,057,38,28,35,129,37*7E
$GPGSV,3,3,12,66,18,137,44,82,54,261,39,76,18,123,44,81,40,342,39*78
$MXPGN,00FF8C,6808,FFF107147AD89F41*18
$MXPGN,00FF3C,3808,8000F8FE00009F41*1C
$GPHDT,78.13,T*38
$TIROT,11.29,A*30
$ERRPM,E,0,565.00,,A*58
$MXPGN,01F205,2872,00000AAB00000000*6D
$MXPGN,01FF0D,780B,FF03000098900520*64
$VDVBW,0.00,,A,,,A,,A,,A*4F
$AGRSA,-3.68,A,,V*6F
$MXPGN,00FF00,280B,0002000005049913*19
!AIVDM,1,1,,A,3:U73NQ000LrObijs6c3jV400D`J,0*32
$MXPGN,01F803,281C,0009600002588C5F*6C
$MXPGN,01F804,281C,FFFF9D3478C18C5F*6C
$MXPGN,01FE10,2872,0000000000000000*6C
$MXPGN,00FF16,7808,FF0000002B0A9F41*1B
$GPHDT,78.08,T*32
$TIROT,8.89,A*02
$ERRPM,E,0,555.00,,A*5B
$MXPGN,01F205,2872,00000AAB00000000*6D
$AGRSA,-3.68,A,,V*6F
$SDDPT,6.32,0.00,*7C
$MXPGN,01F803,281C,000BB80002589F60*1A
$MXPGN,01F804,281C,FFFF9D3478C19F60*1D
$GPHDT,78.08,T*32
$TIROT,8.89,A*02
$VWVHW,,T,,M,0.00,N,0.00,K*54
$ERRPM,E,0,559.00,,A*57
$MXPGN,01F205,2872,00000AAB00000000*6D
$GPGSA,A,3,01,03,04,08,09,10,16,21,26,,,,1.66,1.39,1.39*05
$GPGSV,3,1,09,01,62,231,48,03,30,215,47,04,32,277,47,08,11,336,43*73
$GPGSV,3,2,09,09,03,290,39,10,02,075,41,16,04,025,38,21,71,322,47*74
$MXPGN,01F803,281C,0007080002577866*64
$MXPGN,01F804,281C,00000031E4C17866*6D
$MXPGN,01FF2C,7808,FFFFFFFF9F411720*69
$MXPGN,01FE10,2872,0000000000000000*6C
$MXPGN,01FF2C,7808,FFFF7FFFFFFF7F21*14
$MXPGN,01FF2C,7808,FF7FFFFFFFFFFF22*66
$GPHDT,78.02,T*38
$TIROT,4.59,A*03
$MXPGN,01FF2C,7808,FFFFFFFF7FFFFF23*67
$ERRPM,E,0,580.00,,A*53
$MXPGN,01F205,2872,00000AAB00000000*6D
$MXPGN,00FF3D,6808,7FFFFF0DFFFF9F41*6E
$AGRSA,-3.74,A,,V*62
$MXPGN,01F803,281C,0007080002577866*64
$MXPGN,01F804,281C,00000031E4C17866*6D
$GPHDT,78.02,T*38
$TIROT,4.59,A*03
$MXPGN,00FF00,280B,0002000005049913*19
$ERRPM,E,0,580.00,,A*53
$MXPGN,01F205,2872,00000AAB00000000*6D
$GPGGA,124702.000,2254.72000,S,04309.54603,W,1,12,0.60,-2.55,M,-5.60,M,,*5B
$GPGLL,2254.72000,S,04309.54603,W,124702.000,A,A*5A
$GPRMC,124702.000,A,2254.72000,S,04309.54603,W,2.39,75.49,030523,23.32,W,A*24
$GPVTG,75.49,T,,M,2.39,N,4.42,K,A*08
$GPGGA,,21444.9018,N,21444.90188,E,1,,,,M,,M,,*54
$GPGLL,21444.9018,N,21444.90188,E,,A,A*4F
$GPVTG,,T,,M,,N,,K,A*23
$AGRSA,-3.74,A,,V*62
!AIVDO,1,1,,,B:UOH3P3wk?8mP=18D3Q3wwUkP06,0*70
$MXPGN,01F803,281C,000BB8000257A068*13
$MXPGN,01F804,281C,0000003247C1A068*6C
$MXPGN,01FE10,2872,0000000000000000*6C
$GPHDT,77.98,T*34
$TIROT,4.69,A*00
$ERRPM,E,0,569.00,,A*54
$MXPGN,01F205,2872,00000AAB00000000*6D
$MXPGN,00FF19,7808,0000000202009F41*15
$MXPGN,00FF19,7808,0080000A0A009F41*1D
$AGRSA,-3.74,A,,V*62
$GPZDA,124701.280,03,05,2023,,*58
$MXPGN,01F803,281C,000BB80004AFB469*16
$MXPGN,01F804,281C,0000003247C1B469*6A
$GPGSA,A,3,01,03,04,08,16,21,26,28,66,82,76,81,1.30,1.20,1.20*06
$GPGSV,3,1,12,01,62,232,46,03,30,216,39,04,32,278,39,08,12,337,43*7A
$GPGSV,3,2,12,16,04,026,35,21,72,323,39,26,14,057,38,28,35,129,38*71
$GPGSV,3,3,12,66,18,136,44,82,54,261,39,76,18,123,44,81,40,342,38*78
$MXPGN,00FF8C,6808,FFF107147AD89F41*18
$MXPGN,00FF3C,3808,8000F8FE00009F41*1C
$GPHDT,77.98,T*34
$TIROT,4.69,A*00
$ERRPM,E,0,570.00,,A*5C
$MXPGN,01F205,2872,00000AAB00000000*6D
$MXPGN,01FF0D,780B,FF03000098900540*62
$VDVBW,0.00,,A,,,A,,A,,A*4F
$AGRSA,-3.74,A,,V*62
$MXPGN,00FF00,280B,0002000005049913*19
$MXPGN,01F803,281C,000E100004AFC86A*1F
$MXPGN,01F804,281C,0000003247C1C86A*1F
$MXPGN,00FF16,7808,FF0000002B0A9F41*1B
$MXPGN,01FE10,2872,0000000000000000*6C
$GPHDT,77.98,T*34
$TIROT,4.39,A*05
$ERRPM,E,0,560.00,,A*5D
$MXPGN,01F205,2872,00000AAB00000000*6D
$VDVBW,0.00,,A,,,A,,A,,A*4F
$AGRSA,-3.74,A,,V*62
$MXPGN,00FF00,280B,0002000005049913*19
$MXPGN,01F803,281C,0004AF0000003B6F*66
$MXPGN,01F804,281C,0000003542C13B6F*10
$MXPGN,00FF1E,5872,00FF44DC3EC09890*16
$GPHDT,77.76,T*34
$TIROT,0.39,A*01
$ERRPM,E,0,590.00,,A*52
$MXPGN,01F205,2872,00000AAB00000000*6D
$AGRSA,-3.80,A,,V*69
!AIVDM,2,1,7,B,5:U7?Ap2Fp>q1GK7WD08DhuJ0QDl4U@40000000R1pJ56<@`07DRCp11H2PC,0*5A
!AIVDM,2,2,7,B,QBDSh000000,2*7C
$MXPGN,01F803,281C,0007070002575070*66
$MXPGN,01F804,281C,00000034CFC15070*11
$MXPGN,01FF2C,7808,FFFFFFFF9F411740*6F
$MXPGN,01FE10,2872,0000000000000000*6C
$MXPGN,01FF2C,7808,FFFF7FFFFFFF7F41*12
$MXPGN,01FF2C,7808,FF7FFFFFFFFFFF42*60
$GPHDT,77.73,T*31
$TIROT,-2.39,A*2E
$MXPGN,01FF2C,7808,FFFFFFFF7FFFFF43*61
$ERRPM,E,0,575.00,,A*59
$MXPGN,01F205,2872,00000AAB00000000*6D
$MXPGN,00FF3D,6808,7FFFFF0DFFFF9F41*6E
$MXPGN,00FF3D,6808,0000FF0BFFFF9F41*19
$AGRSA,-3.80,A,,V*69
$MXPGN,00FF3D,6808,FFFFFF0CFFFF9F41*18
$MXPGN,01F803,281C,0007070002575070*66
$MXPGN,01F804,281C,00000034CFC15070*11
$MXPGN,00FF3D,6808,FFFFFF03FFFF9F41*68
$GPHDT,77.70,T*32
$TIROT,-2.39,A*2E
$MXPGN,00FF00,280B,0002000005049913*19
$ERRPM,E,0,583.00,,A*50
$MXPGN,01F205,2872,00000AAB00000000*6D
$MXPGN,00FF3D,6808,FFFFFF02FFFF9F41*69
$GPGGA,124703.000,2254.72003,S,04309.54535,W,1,12,0.60,-2.68,M,-5.60,M,,*51
$GPGLL,2254.72003,S,04309.54535,W,124703.000,A,A*5E
$GPRMC,124703.000,A,2254.72003,S,04309.54535,W,1.88,81.69,030523,23.32,W,A*20
$GPVTG,81.69,T,,M,1.88,N,3.48,K,A*05
$GPGGA,,21444.9018,N,21444.90188,E,1,,,,M,,M,,*54
$GPGLL,21444.9018,N,21444.90188,E,,A,A*4F
$GPVTG,,T,,M,,N,,K,A*23
$AGRSA,-3.80,A,,V*69
$MXPGN,01F803,281C,00095F0002577872*14
$MXPGN,01F804,281C,0000003456C17872*1F
!AIVDM,1,1,,A,1:U8U8PP00LrC51jqoAMNgwp0PS2,0*03
$MXPGN,01FE10,2872,0000000000000000*6C
$GPHDT,77.66,T*35
$TIROT,-4.89,A*23
$ERRPM,E,0,583.00,,A*50
$MXPGN,01F205,2872,00000AAB00000000*6D
$MXPGN,00FF19,7808,0000000202009F41*15
$MXPGN,00FF19,7808,0080000A0A009F41*1D
$AGRSA,-3.80,A,,V*69
$GPZDA,124702.280,03,05,2023,,*5B
!AIVDM,1,1,,B,1:U73SP000trW4=jr4ar31t02<2M,0*1C
$MXPGN,01F803,281C,000BB70002578C73*1C
$MXPGN,01F804,281C,0000003456C18C73*6A
$GPGSA,A,3,01,03,04,08,16,21,26,28,66,82,76,81,1.30,1.20,1.20*06
$GPGSV,3,1,12,01,62,232,46,03,30,216,39,04,32,278,38,08,12,337,43*7B
$GPGSV,3,2,12,16,04,026,35,21,72,323,39,26,14,057,38,28,35,129,39*70
$GPGSV,3,3,12,66,18,136,44,82,54,261,39,76,18,123,44,81,40,342,38*78
$AGRSA,-3.80,A,,V*69
$MXPGN,01F803,281C,0002570002572878*61
$MXPGN,01F804,281C,00000032CCC12878*15
$MXPGN,01FE10,2872,0000000000000000*6C
$GPHDT,77.47,T*36
$TIROT,-6.89,A*21
$ERRPM,E,0,567.00,,A*5A
$MXPGN,01F205,2872,00000AAB00000000*6D
$VDVBW,0.00,,A,,,A,,A,,A*4F
$AGRSA,-3.80,A,,V*69
$MXPGN,00FF00,280B,0002000005049913*19
!AIVDM,1,1,,B,1:U6vLPP03trHfajpdpD8?v62@2B,0*32
$MXPGN,01F803,281C,0004AF0002573B79*18
$MXPGN,01F804,281C,00000032CCC13B79*6F
$GPHDT,77.44,T*35
$TIROT,-6.89,A*21
$ERRPM,E,0,578.00,,A*54
$MXPGN,01F205,2872,00000AAB00000000*6D
$AGRSA,-3.80,A,,V*69
!AIVDM,2,1,8,A,5:U8M84000011W;3?F0U@4<t5@T586222222220t80>680@q04P000000000,0*42
!AIVDM,2,2,8,A,00000000000,2*2C
$MXPGN,01F803,281C,0004AF000257507A*14
$MXPGN,01F804,281C,000000344EC1507A*14
$MXPGN,01FF2C,7808,FFFFFFFF9F411760*6D
$MXPGN,01FE10,2872,0000000000000000*6C
$MXPGN,01FF2C,7808,FFFF7FFFFFFF7F61*10
$MXPGN,01FF2C,7808,FF7FFFFFFFFFFF62*62
$GPHDT,77.42,T*33
$TIROT,-5.79,A*2D
$MXPGN,01FF2C,7808,FFFFFFFF7FFFFF63*63
$ERRPM,E,0,583.00,,A*50
$MXPGN,01F205,2872,00000AAB00000000*6D
$MXPGN,00FF3D,6808,7FFFFF0DFFFF9F41*6E
$AGRSA,-3.80,A,,V*69
$MXPGN,01F803,281C,0004AF000257507A*14
$MXPGN,01F804,281C,000000344EC1507A*14
$GPHDT,77.41,T*30
$TIROT,-5.79,A*2D
$MXPGN,00FF00,280B,0002000005049913*19
$ERRPM,E,0,575.00,,A*59
$MXPGN,01F205,2872,00000AAB00000000*6D
$GPGGA,124704.000,2254.71994,S,04309.54459,W,1,12,0.60,-2.55,M,-5.60,M,,*57
$GPGLL,2254.71994,S,04309.54459,W,124704.000,A,A*56
$GPRMC,124704.000,A,2254.71994,S,04309.54459,W,1.98,71.99,030523,23.32,W,A*29
$GPVTG,71.99,T,,M,1.98,N,3.66,K,A*08
$GPGGA,,21444.9018,N,21444.90188,E,1,,,,M,,M,,*54
$GPGLL,21444.9018,N,21444.90188,E,,A,A*4F
$GPVTG,,T,,M,,N,,K,A*23
$AGRSA,-3.80,A,,V*69
$MXPGN,01F803,281C,00095F000257787C*65
$MXPGN,01F804,281C,0000003374C1787C*69
!AIVDO,1,1,,,B:UOH3P3wk?8mP=18D3Q3wwUkP06,0*70
$MXPGN,01FE10,2872,0000000000000000*6C
$GPHDT,77.43,T*32
$TIROT,-3.39,A*2F
$ERRPM,E,0,573.00,,A*5F
$MXPGN,01F205,2872,00000AAB00000000*6D
$MXPGN,00FF19,7808,0000000202009F41*15
$MXPGN,00FF19,7808,0080000A0A009F41*1D
$AGRSA,-3.80,A,,V*69
$GPZDA,124703.280,03,05,2023,,*5A
!AIVDM,1,1,,B,1:U8JFPP1WLrRI1jqUuSDwv:00S?,0*46
$MXPGN,01F803,281C,00095F0004AF8C7D*15
$MXPGN,01F804,281C,0000003374C18C7D*1A
$AGRSA,-3.80,A,,V*69
$MXPGN,01FF1A,680B,FF022B849F410580*64
!AIVDM,1,1,,A,1:U8?kPP1WLrIQIjqDUk:Owp0t2>,0*46
$MXPGN,01FF1A,782B,FF010B049F410580*6E
$MXPGN,01F803,281C,0002580000001481*67
$MXPGN,01F804,281C,0000003489C11481*1B
$GPHDT,77.59,T*39
$TIROT,-0.19,A*2E
$ERRPM,E,0,583.00,,A*50
$MXPGN,01F205,2872,00000AAB00000000*6D
$AGRSA,-3.80,A,,V*69
$MXPGN,01F803,281C,0002580000002882*6B
$MXPGN,01F804,281C,0000003489C12882*17
$MXPGN,01FE10,2872,0000000000000000*6C
$GPHDT,77.59,T*39
$TIROT,-0.29,A*2D
$ERRPM,E,0,567.00,,A*5A
$MXPGN,01F205,2872,00000AAB00000000*6D
$VDVBW,0.00,,A,,,A,,A,,A*4F
$AGRSA,-3.80,A,,V*69
$MXPGN,00FF00,280B,0002000005049913*19
$MXPGN,01F803,281C,0004AF0000003B83*1D
$MXPGN,01F804,281C,0000003489C13B83*6D
$GPHDT,77.61,T*32
$TIROT,-0.29,A*2D
$ERRPM,E,0,583.00,,A*50
$MXPGN,01F205,2872,00000AAB00000000*6D
$AGRSA,-3.80,A,,V*69
$MXPGN,01F803,281C,0007080002585084*6D
$MXPGN,01F804,281C,00000035DCC15084*19
$MXPGN,01FF2C,7808,FFFFFFFF9F411780*63
$MXPGN,01FE10,2872,0000000000000000*6C
$MXPGN,01FF2C,7808,FFFF7FFFFFFF7F81*1E
$MXPGN,01FF2C,7808,FF7FFFFFFFFFFF82*6C
$GPHDT,77.59,T*39
$TIROT,-0.89,A*27
$MXPGN,01FF2C,7808,FFFFFFFF7FFFFF83*6D
$ERRPM,E,0,574.00,,A*58
$MXPGN,01F205,2872,00000AAB00000000*6D
$MXPGN,00FF3D,6808,7FFFFF0DFFFF9F41*6E
$AGRSA,-3.80,A,,V*69
$MXPGN,01F803,281C,0007080002585084*6D
$MXPGN,01F804,281C,00000035DCC15084*19
$GPHDT,77.56,T*36
$TIROT,-0.89,A*27
$MXPGN,00FF00,280B,0002000005049913*19
$ERRPM,E,0,581.00,,A*52
$MXPGN,01F205,2872,00000AAB00000000*6D
!AIVDM,2,1,0,B,5:U7?Ap2Fp>q1GK7WD08DhuJ0QDl4U@40000000R1pJ56<@`07DRCp11H2PC,0*5D
!AIVDM,2,2,0,B,QBDSh000000,2*7B
$GPGGA,124705.000,2254.71985,S,04309.54385,W,1,12,0.60,-2.68,M,-5.60,M,,*5E
$GPGLL,2254.71985,S,04309.54385,W,124705.000,A,A*51
$GPRMC,124705.000,A,2254.71985,S,04309.54385,W,1.98,79.39,030523,23.32,W,A*2C
$GPVTG,79.39,T,,M,1.98,N,3.66,K,A*0A
$GPGGA,,21444.9018,N,21444.90188,E,1,,,,M,,M,,*54
$GPGLL,21444.9018,N,21444.90188,E,,A,A*4F
$GPVTG,,T,,M,,N,,K,A*23
$AGRSA,-3.80,A,,V*69
$MXPGN,01F803,281C,0009600002587886*65
$MXPGN,01F804,281C,000000368FC17886*6B
$MXPGN,01FE10,2872,0000000000000000*6C
$GPHDT,77.54,T*34
$TIROT,-1.39,A*2D
$ERRPM,E,0,556.00,,A*58
!AIVDM,1,1,,A,1:U7P4P000LrN<qjsB?aT5j<00SW,0*40
$GPGSA,A,3,01,03,04,08,09,10,16,21,26,,,,1.66,1.39,1.39*05
$GPGSV,3,1,09,01,62,231,48,03,30,215,45,04,32,277,47,08,11,336,42*70
$GPGSV,3,2,09,09,03,290,36,10,02,075,41,16,04,025,37,21,71,322,47*74
$GPGSV,3,3,09,26,13,057,41*41
$MXPGN,01FA06,681C,7B009B00C88A0F60*60
$MXPGN,01FA06,681C,007B009BF48D0061*1B
$MXPGN,01FA06,681C,FFFFFFFFFF012262*19
$GPGGA,124705.500,2254.71949,S,04309.54439,W,1,09,1.39,-4.19,M,-5.00,M,,*5A
$GPGLL,2254.71949,S,04309.54439,W,124705.500,A,A*54
$GPRMC,124705.500,A,2254.71949,S,04309.54439,W,1.98,80.38,030523,23.41,W,A*2A
$GPVTG,80.38,T,,M,1.98,N,3.66,K,A*0D
$AGRSA,-4.53,A,,V*60
$MXPGN,01F803,281C,000000000000008A*1D
$MXPGN,01F804,281C,00000036CEC1008A*6B
$GPGSA,A,,,,,,,,,,,,,,,,*2F
$MXPGN,01FE10,2872,0000000000000000*6C
$GPHDT,77.47,T*36
$TIROT,-1.79,A*29
$MXPGN,00FF00,280B,0002000005049913*19
$ERRPM,E,0,579.00,,A*55
$MXPGN,01F205,2872,00000AAB00000000*6D
$MXPGN,01FF1A,680B,FF022B849F4105A0*1D
$MXPGN,01FF1A,782B,FF010B049F4105A0*17
$AGRSA,-4.53,A,,V*60
$MXPGN,01F803,281C,000257000000148B*1B
$MXPGN,01F804,281C,0000633555C1148B*6D
$GPHDT,77.45,T*34
$TIROT,-1.79,A*29
$ERRPM,E,0,574.00,,A*58
$MXPGN,01F205,2872,00000AAB00000000*6D
$AGRSA,-4.59,A,,V*6A
!AIVDM,1,1,,B,1:U8eH?000trDM5jrw:e44n40<2C,0*4C
$MXPGN,01F803,281C,0004AF000000288C*16
$MXPGN,01F804,281C,0000633555C1288C*63
$MXPGN,01FE10,2872,0000000000000000*6C
$GPHDT,77.46,T*37
$TIROT,-2.29,A*2F
$ERRPM,E,0,570.00,,A*5C
$MXPGN,01F205,2872,00000AAB00000000*6D
!AIVDM,1,1,,A,1:UQ9B0000LrSAEjrPEaQHF>0<2B,0*4A
$VDVBW,0.00,,A,,,A,,A,,A*4F
$AGRSA,-4.59,A,,V*6A
$MXPGN,00FF00,280B,0002000005049913*19
$MXPGN,01F803,281C,0004AF0002573B8D*6A
$MXPGN,01F804,281C,0000003555C13B8D*1A
$GPHDT,77.45,T*34
$TIROT,-2.29,A*2F
$ERRPM,E,0,563.00,,A*5E
$MXPGN,01F205,2872,00000AAB00000000*6D
$AGRSA,-4.65,A,,V*65
$MXPGN,01F803,281C,000708000257508E*13
$MXPGN,01F804,281C,000000356FC1508E*1F
$MXPGN,01FE10,2872,0000000000000000*6C
$MXPGN,01FF2C,7808,FFFFFFFF9F4117A0*1A
$MXPGN,01FF2C,7808,FFFF7FFFFFFF7FA1*67
$GPHDT,77.44,T*35
$TIROT,-2.99,A*24
$MXPGN,01FF2C,7808,FF7FFFFFFFFFFFA2*15
$MXPGN,01FF2C,7808,FFFFFFFF7FFFFFA3*14
$ERRPM,E,0,568.00,,A*55
$MXPGN,01F205,2872,00000AAB00000000*6D
$MXPGN,00FF3D,6808,7FFFFF0DFFFF9F41*6E
$AGRSA,-4.65,A,,V*65
$AGRSA,-4.71,A,,V*60
$SDDPT,6.50,0.00,*78
$MXPGN,01FF1A,782B,FFFAFF859F4105C0*68
$MXPGN,01F803,281C,000E0F000257B493*1B
$MXPGN,01F804,281C,0000003433C1B493*6A
$GPHDT,77.24,T*33
$TIROT,-6.19,A*28
$VWVHW,,T,,M,0.00,N,0.00,K*54
$ERRPM,E,0,578.00,,A*54
$MXPGN,01F205,2872,00000AAB00000000*6D
$GPGSA,A,3,01,03,04,08,09,10,16,21,26,28,,,1.66,1.39,1.39*0F
$GPGSV,3,1,10,01,62,231,48,03,30,215,45,04,32,277,46,08,11,336,44*7F
$GPGSV,3,2,10,09,03,290,37,10,02,075,38,16,04,025,38,21,71,322,46*7D
$GPGSV,3,3,10,26,13,057,41,28,35,129,47*7C
$MXPGN,01FA06,681C,6D008300C8940F80*6D
$MXPGN,01FA06,681C,007800791D160081*66
$MXPGN,01FA06,681C,FFFFFFFFFF00ED82*17
$GPGGA,124706.500,2254.71940,S,04309.54379,W,1,10,1.39,-4.19,M,-5.00,M,,*5B
$GPGLL,2254.71940,S,04309.54379,W,124706.500,A,A*5D
$GPRMC,124706.500,A,2254.71940,S,04309.54379,W,2.23,76.41,030523,23.41,W,A*27
$GPVTG,76.41,T,,M,2.23,N,4.12,K,A*0D
$AGRSA,-4.71,A,,V*60
$MXPGN,01F803,281C,0000000000000094*69
$MXPGN,01F804,281C,0000003433C10094*1B
$GPGSA,A,,,,,,,,,,,,,,,,*2F
$MXPGN,01FE10,2872,0000000000000000*6C
$GPHDT,77.20,T*37
$TIROT,-8.29,A*25
$MXPGN,00FF00,280B,0002000005049913*19
$ERRPM,E,0,589.00,,A*5A
$MXPGN,01F205,2872,00000AAB00000000*6D
$MXPGN,01FF1A,680B,FF022B849F4105C0*1F
$MXPGN,01FF1A,782B,FF010B049F4105C0*15
$AGRSA,-4.71,A,,V*60
$MXPGN,01F803,281C,0000000000001495*6D
$MXPGN,01F804,281C,FFFF9C3341C11495*67
$GPHDT,77.16,T*32
$TIROT,-8.29,A*25
$ERRPM,E,0,584.00,,A*57
$MXPGN,01F205,2872,00000AAB00000000*6D
!AIVDM,1,1,,A,1:U8hK0P00LrC5ijqoLdv?wp0W3h,0*0C
$AGRSA,-4.65,A,,V*65
$MXPGN,01F803,281C,0002580000002896*6E
$MXPGN,01F804,281C,FFFF9C3341C12896*6B
$MXPGN,01FE10,2872,0000000000000000*6C
$GPHDT,77.13,T*37
$TIROT,-9.59,A*23
$ERRPM,E,0,589.00,,A*5A
$MXPGN,01F205,2872,00000AAB00000000*6D
$VDVBW,0.00,,A,,,A,,A,,A*4F
$AGRSA,-4.65,A,,V*65
$MXPGN,00FF00,280B,0002000005049913*19
$MXPGN,01F803,281C,0004AF0000003B97*18
$MXPGN,01F804,281C,FFFF9C3341C13B97*11
$MXPGN,00FF1E,5872,00FF60A911409890*6E
$GPHDT,77.10,T*34
$TIROT,-9.59,A*23
$ERRPM,E,0,575.00,,A*59
$MXPGN,01F205,2872,00000AAB00000000*6D
$AGRSA,-4.65,A,,V*65
$MXPGN,01F803,281C,0004AF0000005098*63
$MXPGN,01F804,281C,FFFF9C3480C15098*60
$MXPGN,01FF2C,7808,FFFFFFFF9F4117C0*18
$MXPGN,01FF2C,7808,FFFF7FFFFFFF7FC1*65
$MXPGN,01FF0D,780B,FF030000989005E0*13
$VDVBW,0.00,,A,,,A,,A,,A*4F
$AGRSA,-8.10,A,,V*6B
$MXPGN,00FF00,280B,0002000005049913*19
!AIVDM,1,1,,B,1:U6uRCP00trVfEjr;fW??v@2D20,0*5A
$MXPGN,01F803,281C,00095F0000008C9B*1E
$MXPGN,01F804,281C,0000003623C18C9B*15
$MXPGN,00FF16,7808,FF0000002B0A9F41*1B
$MXPGN,01FE10,2872,0000000000000000*6C
$GPHDT,77.29,T*3E
$TIROT,-1.79,A*29
$ERRPM,E,0,573.00,,A*5F
$MXPGN,01F205,2872,00000AAB00000000*6D
$AGRSA,-8.10,A,,V*6B
$SDDPT,6.54,0.00,*7C
$MXPGN,01F803,281C,00095F0002579F9C*1B
$MXPGN,01F804,281C,0000003623C19F9C*10
!AIVDM,1,1,,B,16:>J;?P00LrENIjr9;MiOv@05Rt,0*20
$GPHDT,77.29,T*3E
$TIROT,-1.79,A*29
$VWVHW,,T,,M,0.00,N,0.00,K*54
$ERRPM,E,0,568.00,,A*55
$MXPGN,01F205,2872,00000AAB00000000*6D
$GPGSA,A,3,01,03,04,08,09,10,16,21,26,28,,,1.36,1.10,1.10*0A
$GPGSV,3,1,10,01,62,231,47,03,30,215,47,04,32,277,47,08,11,336,43*74
$GPGSV,3,2,10,09,03,290,37,10,02,075,41,16,04,026,37,21,71,322,47*7E
$GPGSV,3,3,10,26,13,057,42,28,35,129,46*7E
$MXPGN,01FA06,681C,6D008300C89C0FA0*63
$MXPGN,01FA06,681C,007800791D1600A1*1F
$MXPGN,01FA06,681C,FFFFFFFFFF00EDA2*6E
$GPGGA,124707.400,2254.71919,S,04309.54330,W,1,10,1.10,-4.19,M,-5.00,M,,*51
$GPGLL,2254.71919,S,04309.54330,W,124707.400,A,A*5C
$GPRMC,124707.400,A,2254.71919,S,04309.54330,W,1.94,79.40,030523,23.41,W,A*27
$GPVTG,79.40,T,,M,1.94,N,3.59,K,A*04
$AGRSA,-9.43,A,,V*6C
$MXPGN,01F803,281C,000258000000149D*13
$MXPGN,01F804,281C,0000003779C1149D*63
$GPGSA,A,,,,,,,,,,,,,,,,*2F
$MXPGN,01FE10,2872,0000000000000000*6C
$GPHDT,77.36,T*30
$TIROT,-1.79,A*29
$MXPGN,00FF00,280B,0002000005049913*19
$MXPGN,01FF1A,680B,FF022B849F4105E0*19
$ERRPM,E,0,561.00,,A*5C
$MXPGN,01F205,2872,00000AAB00000000*6D
$MXPGN,01FF1A,782B,FF010B049F4105E0*13
$AGRSA,-9.43,A,,V*6C
$MXPGN,01F803,281C,0004AF000000299E*10
$MXPGN,01F804,281C,0000003779C1299E*6C
$GPHDT,77.42,T*33
$TIROT,1.79,A*04
$ERRPM,E,0,569.00,,A*54
$MXPGN,01F205,2872,00000AAB00000000*6D
$AGRSA,-9.49,A,,V*66
$MXPGN,01F803,281C,00070800000050A0*1F
$MXPGN,01F804,281C,00000038CAC150A0*6C
$MXPGN,01FE10,2872,0000000000000000*6C
$GPHDT,77.52,T*32
$TIROT,3.99,A*08
$ERRPM,E,0,576.00,,A*5A
$MXPGN,01F205,2872,00000AAB00000000*6D
$VDVBW,0.00,,A,,,A,,A,,A*4F
$AGRSA,-9.49,A,,V*66
$MXPGN,00FF00,280B,0002000005049913*19
$MXPGN,00FF19,7808,0000000202009F41*15
!AIVDO,1,1,,,B:UOH3P3wk?8mP=18D3Q3wwUkP06,0*70
$MXPGN,00FF19,7808,0080000A0A009F41*1D
$AGRSA,-9.61,A,,V*6C
$GPZDA,124707.280,03,05,2023,,*5E
$MXPGN,01F803,281C,000E10000000B4A5*12
$MXPGN,01F804,281C,0000003807C1B4A5*1F
$GPGSA,A,3,01,03,04,08,16,21,26,28,66,82,76,81,1.30,1.20,1.20*06
$GPGSV,3,1,12,01,62,232,46,03,30,216,38,04,32,278,39,08,12,337,43*7B
$GPGSV,3,2,12,16,04,026,36,21,72,323,39,26,14,057,36,28,35,129,38*7C
$GPGSV,3,3,12,66,18,136,44,82,54,262,39,76,18,124,44,81,40,342,38*7C
$MXPGN,00FF8C,6808,FFF107147AD89F41*18
$MXPGN,00FF3C,3808,8000F8FE00009F41*1C
$GPHDT,77.33,T*35
$TIROT,0.49,A*06
$ERRPM,E,0,579.00,,A*55
$MXPGN,01F205,2872,00000AAB00000000*6D
$MXPGN,01FF0D,780B,FF03000098900500*66
$VDVBW,0.00,,A,,,A,,A,,A*4F
$AGRSA,-9.61,A,,V*6C
$MXPGN,00FF00,280B,0002000005049913*19
$MXPGN,01F803,281C,001067000000C8A6*68
$MXPGN,01F804,281C,0000003807C1C8A6*11
$MXPGN,00FF16,7808,FF0000002B0A9F41*1B
$MXPGN,01FE10,2872,0000000000000000*6C
$GPHDT,77.26,T*31
$TIROT,-4.49,A*2F
$ERRPM,E,0,577.00,,A*5B
$MXPGN,01F205,2872,00000AAB00000000*6D
$AGRSA,-9.61,A,,V*6C
$SDDPT,6.38,0.00,*76
!AIVDM,2,1,2,B,5:U7?Ap2Fp>q1GK7WD08DhuJ0QDl4U@40000000R1pJ56<@`07DRCp11H2PC,0*5F
!AIVDM,2,2,2,B,QBDSh000000,2*79
$MXPGN,01F803,281C,0012C0000000DCA7*65
$MXPGN,01F804,281C,0000003500C1DCA7*66
$GPHDT,77.17,T*33
$TIROT,-4.49,A*2F
$VWVHW,,T,,M,0.00,N,0.00,K*54
$ERRPM,E,0,574.00,,A*58
$MXPGN,01F205,2872,00000AAB00000000*6D
$GPGSA,A,3,01,03,04,08,09,10,16,21,26,28,,,1.36,1.10,1.10*0A
$GPGSV,3,1,10,01,62,231,48,03,30,215,46,04,32,277,47,08,11,336,42*7B
$GPGSV,3,2,10,09,03,290,38,10,02,075,40,16,04,026,38,21,71,322,47*7F
$GPGSV,3,3,10,26,13,057,41,28,35,129,47*7C
$MXPGN,01FA06,681C,6D008300C8A80FC0*62
$MXPGN,01FA06,681C,007800791D1600C1*1D
$MXPGN,01FA06,681C,FFFFFFFFFF00EDC2*6C
$GPGGA,124708.500,2254.71919,S,04309.54249,W,1,10,1.10,-4.19,M,-5.00,M,,*50
$GPGLL,2254.71919,S,04309.54249,W,124708.500,A,A*5D
$GPRMC,124708.500,A,2254.71919,S,04309.54249,W,2.15,77.73,030523,23.41,W,A*22
$GPVTG,77.73,T,,M,2.15,N,3.98,K,A*0D
$AGRSA,-8.70,A,,V*6D
!AIVDM,1,1,,A,15COqt0000LrKIEjrwwnIThd0D2B,0*31
$MXPGN,01F803,281C,00000000000000A8*1D
$MXPGN,01F804,281C,0000003500C100A8*6E
$GPGSA,A,,,,,,,,,,,,,,,,*2F
$MXPGN,01FE10,2872,0000000000000000*6C
$GPHDT,77.09,T*3C
$TIROT,-10.39,A*1D
$MXPGN,00FF00,280B,0002000005049913*19
$ERRPM,E,0,578.00,,A*54
$MXPGN,01F205,2872,00000AAB00000000*6D
$AGRSA,-8.70,A,,V*6D
!AIVDM,2,1,3,A,5:U7?Ap2Fp>q1GK7WD08DhuJ0QDl4U@40000000R1pJ56<@`07DRCp11H2PC,0*5D
$GPGGA,124709.000,2254.71976,S,04309.54126,W,1,12,0.60,-3.01,M,-5.60,M,,*5B
$GPGLL,2254.71976,S,04309.54126,W,124709.000,A,A*5A
$GPRMC,124709.000,A,2254.71976,S,04309.54126,W,1.78,80.09,030523,23.32,W,A*2C
$GPVTG,80.09,T,,M,1.78,N,3.29,K,A*0A
$GPGGA,,21444.9018,N,21444.90188,E,1,,,,M,,M,,*54
$GPGLL,21444.9018,N,21444.90188,E,,A,A*4F
$GPVTG,,T,,M,,N,,K,A*23
$AGRSA,-3.26,A,,V*65
$MXPGN,01F803,281C,00095F00025878AE*1A
$MXPGN,01F804,281C,FFFF9C3211C178AE*61
$MXPGN,01FE10,2872,0000000000000000*6C
$GPHDT,76.59,T*38
$TIROT,-18.79,A*11
$ERRPM,E,0,577.00,,A*5B
$MXPGN,01F205,2872,00000AAB00000000*6D
$MXPGN,00FF19,7808,0000000202009F41*15
$MXPGN,00FF19,7808,0080000A0A009F41*1D
$AGRSA,-3.26,A,,V*65
$GPZDA,124708.280,03,05,2023,,*51
$MXPGN,01F803,281C,000BB80002588CAF*1F
$MXPGN,01F804,281C,FFFF9C3211C18CAF*16
$GPGSA,A,3,01,03,04,08,16,21,26,28,66,82,76,81,1.30,1.20,1.20*06
$GPGSV,3,1,12,01,62,232,46,03,30,216,37,04,32,278,39,08,12,337,42*75
$GPGSV,3,2,12,16,04,026,36,21,72,323,40,26,14,057,36,28,35,129,38*72
$GPGSV,3,3,12,66,18,136,44,82,54,262,38,76,18,124,44,81,40,342,38*7D
$MXPGN,00FF8C,6808,FFF107147AD89F41*18
$MXPGN,00FF3C,3808,8000F8FE00009F41*1C
$GPHDT,76.56,T*37
$TIROT,-18.79,A*11
$ERRPM,E,0,579.00,,A*55
$MXPGN,01F205,2872,00000AAB00000000*6D
$MXPGN,01FF0D,780B,FF03000098900520*64
$VDVBW,0.00,,A,,,A,,A,,A*4F
$AGRSA,0.34,A,,V*48
$MXPGN,00FF00,280B,0002000005049913*19
$MXPGN,01F803,281C,000BB80002588CAF*1F
$MXPGN,01F804,281C,FFFF9C3211C18CAF*16
$MXPGN,01FE10,2872,0000000000000000*6C
$MXPGN,00FF16,7808,FF0000002B0A9F41*1B
$GPHDT,76.56,T*37
$TIROT,-18.79,A*11
$ERRPM,E,0,578.00,,A*54
$MXPGN,01F205,2872,00000AAB00000000*6D
!AIVDM,2,1,4,B,5:U7?Ap2Fp>q1GK7WD08DhuJ0QDl4U@40000000R1pJ56<@`07DRCp11H2PC,0*59
!AIVDM,2,2,4,B,QBDSh000000,2*7F
$AGRSA,0.34,A,,V*48
$SDDPT,6.47,0.00,*7E
$MXPGN,01FF1A,782B,FFFAFF859F410520*19
$MXPGN,01F803,281C,000E10000258B4B1*1A
$MXPGN,01F804,281C,FFFF9C3644C1B4B1*6B
$GPHDT,76.61,T*33
$TIROT,-16.19,A*19
$VWVHW,,T,,M,0.00,N,0.00,K*54
$ERRPM,E,0,576.00,,A*5A
$MXPGN,01F205,2872,00000AAB00000000*6D
$GPGSA,A,3,01,03,04,08,09,10,16,21,26,28,,,1.36,1.10,1.10*0A
$GPGSV,3,1,10,01,62,231,48,03,30,215,46,04,32,277,47,08,11,336,42*7B
$GPGSV,3,2,10,09,03,290,36,10,02,075,41,16,04,026,37,21,71,322,47*7F
$GPGSV,3,3,10,26,13,057,41,28,35,129,46*7D
$MXPGN,01FA06,681C,6D008300C8B20FE0*6D
$MXPGN,01FA06,681C,007800791D1C00E1*6E
$MXPGN,01FA06,681C,FFFFFFFFFF00EDE2*6A
$GPGGA,124709.500,2254.71899,S,04309.54189,W,1,10,1.10,-4.19,M,-5.00,M,,*57
$GPGLL,2254.71899,S,04309.54189,W,124709.500,A,A*5A
$MXPGN,00FF3D,6808,7FFFFF0DFFFF9F41*6E
$AGRSA,1.09,A,,V*47
$MXPGN,01F803,281C,0004AF00000050B6*16
$MXPGN,01F804,281C,0000003A40C150B6*16
$GPHDT,76.89,T*35
$TIROT,-3.39,A*2F
$ERRPM,E,0,570.00,,A*5C
$MXPGN,01F205,2872,00000AAB00000000*6D
$MXPGN,00FF00,280B,0002000005049913*19
$GPGGA,124710.000,2254.71955,S,04309.54069,W,1,12,0.60,-3.14,M,-5.60,M,,*5C
$GPGLL,2254.71955,S,04309.54069,W,124710.000,A,A*59
$GPRMC,124710.000,A,2254.71955,S,04309.54069,W,2.09,81.39,030523,23.32,W,A*28
$GPVTG,81.39,T,,M,2.09,N,3.87,K,A*09
$GPGGA,,21444.9018,N,21444.90188,E,1,,,,M,,M,,*54
$GPGLL,21444.9018,N,21444.90188,E,,A,A*4F
$GPVTG,,T,,M,,N,,K,A*23
$AGRSA,1.19,A,,V*46
$MXPGN,01F803,281C,00096000000078B8*1E
$MXPGN,01F804,281C,000000396BC178B8*1A
$MXPGN,01FE10,2872,0000000000000000*6C
$GPHDT,76.94,T*39
$TIROT,-0.29,A*2D
$ERRPM,E,0,552.00,,A*5C
$MXPGN,01F205,2872,00000AAB00000000*6D
$MXPGN,00FF19,7808,0000000202009F41*15
$MXPGN,00FF19,7808,0080000A0A009F41*1D
$AGRSA,1.19,A,,V*46
$GPZDA,124709.270,03,05,2023,,*5F
!AIVDO,1,1,,,B:UOH3P3wk?8mP=18D3Q3wwUkP06,0*70
$MXPGN,01F803,281C,0009600002578CB9*6B
$MXPGN,01F804,281C,000000396BC18CB9*6F
$GPGSA,A,3,01,03,04,08,16,21,26,28,66,82,76,81,1.30,1.20,1.20*06
$GPGSV,3,1,12,01,62,232,45,03,30,216,33,04,32,278,39,08,12,337,42*72
$GPGSV,3,2,12,16,04,026,35,21,72,323,40,26,14,057,36,28,35,129,39*70
$GPGSV,3,3,12,66,18,136,44,82,54,262,38,76,18,124,45,81,40,342,38*7C
$MXPGN,00FF8C,6808,FFF107147AD89F41*18
$MXPGN,00FF3C,3808,8000F8FE00009F41*1C
$GPHDT,76.95,T*38
$TIROT,-0.29,A*2D
$ERRPM,E,0,576.00,,A*5A
$MXPGN,01F205,2872,00000AAB00000000*6D
$MXPGN,01FF0D,780B,FF03000098900540*62
$VDVBW,0.00,,A,,,A,,A,,A*4F
$AGRSA,1.34,A,,V*49
$MXPGN,01F803,281C,000BB80002579FBA*10
$MXPGN,01F804,281C,000000396BC19FBA*13
$MXPGN,00FF00,280B,0002000005049913*19
$MXPGN,01FE10,2872,0000000000000000*6C
$MXPGN,00FF16,7808,FF0000002B0A9F41*1B
$GPHDT,76.97,T*3A
$TIROT,0.79,A*05
$ERRPM,E,0,576.00,,A*5A
$MXPGN,01F205,2872,00000AAB00000000*6D
$AGRSA,1.34,A,,V*49
$SDDPT,6.42,0.00,*7B
$MXPGN,01F803,281C,000BB8000257B4BB*1A
$MXPGN,01F804,281C,00000036B1C1B4BB*11
$GPHDT,76.98,T*35
$TIROT,0.79,A*05
$VWVHW,,T,,M,0.00,N,0.00,K*54
$ERRPM,E,0,583.00,,A*50
$MXPGN,01F205,2872,00000AAB00000000*6D
$GPGSA,A,3,01,03,04,08,09,10,16,21,26,28,,,1.36,1.10,1.10*0A
$GPGSV,3,1,10,01,62,231,48,03,30,215,45,04,32,277,47,08,11,336,42*78
$GPHDT,76.97,T*3A
$TIROT,-0.19,A*2E
$ERRPM,E,0,587.00,,A*54
$MXPGN,01F205,2872,00000AAB00000000*6D
$AGRSA,1.39,A,,V*44
$MXPGN,01F803,281C,00070800000050C0*1D
$MXPGN,01F804,281C,00000033B1C150C0*14
$MXPGN,01FE10,2872,0000000000000000*6C
$MXPGN,01FF2C,7808,FFFFFFFF9F411740*6F
$MXPGN,01FF2C,7808,FFFF7FFFFFFF7F41*12
$GPHDT,76.95,T*38
$TIROT,-0.89,A*27
$MXPGN,01FF2C,7808,FF7FFFFFFFFFFF42*60
!AIVDM,1,1,,B,1:U=<3hP00trH=qjqA:qdOvD2H6N,0*79
$ERRPM,E,0,593.00,,A*51
$MXPGN,01F205,2872,00000AAB00000000*6D
$MXPGN,01FF2C,7808,FFFFFFFF7FFFFF43*61
$MXPGN,00FF3D,6808,7FFFFF0DFFFF9F41*6E
$AGRSA,1.39,A,,V*44
$MXPGN,01F803,281C,00070800025764C1*1B
$MXPGN,01F804,281C,00000033B1C164C1*12
$GPHDT,76.94,T*39
$TIROT,-0.89,A*27
$ERRPM,E,0,589.00,,A*5A
$MXPGN,01F205,2872,00000AAB00000000*6D
!AIVDM,1,1,,B,1:U8:OQP1OtrJqejqJ69fgvB286R,0*14
$MXPGN,00FF00,280B,0002000005049913*19
$GPGGA,124711.000,2254.71929,S,04309.53998,W,1,12,0.60,-3.01,M,-5.60,M,,*52
$GPGLL,2254.71929,S,04309.53998,W,124711.000,A,A*53
$GPRMC,124711.000,A,2254.71929,S,04309.53998,W,1.88,74.89,030523,23.32,W,A*29
$GPVTG,74.89,T,,M,1.88,N,3.48,K,A*01
$GPGGA,,21444.9018,N,21444.90188,E,1,,,,M,,M,,*54
$GPGLL,21444.9018,N,21444.90188,E,,A,A*4F
$GPVTG,,T,,M,,N,,K,A*23
$AGRSA,1.43,A,,V*49
$MXPGN,01F803,281C,00095F00025778C2*60
$MXPGN,01F804,281C,00000032F6C178C2*1E
$MXPGN,01FE10,2872,0000000000000000*6C
$GPHDT,76.94,T*39
$TIROT,-0.89,A*27
$ERRPM,E,0,586.00,,A*55
$MXPGN,01F205,2872,00000AAB00000000*6D
$MXPGN,00FF19,7808,0000000202009F41*15
$MXPGN,00FF19,7808,0080000A0A009F41*1D
$AGRSA,1.43,A,,V*49
$GPZDA,124710.270,03,05,2023,,*57
$MXPGN,01F803,281C,000BB80002578CC3*67
$MXPGN,01F804,281C,00000032F6C18CC3*6B
$GPGSA,A,3,01,03,04,08,16,21,26,28,66,82,76,81,1.30,1.20,1.20*06
$GPGSV,3,1,12,01,62,232,45,03,30,216,33,04,32,278,39,08,12,337,42*72
$GPGSV,3,2,12,16,04,026,36,21,72,323,40,26,14,057,37,28,35,129,38*73
$GPGSV,3,3,12,66,18,136,44,82,54,262,38,76,18,124,45,81,40,342,40*73
$MXPGN,00FF8C,6808,FFF107147AD89F41*18
$MXPGN,00FF3C,3808,8000F8FE00009F41*1C
$GPHDT,76.92,T*3F
$TIROT,-0.89,A*27
!AIVDM,2,1,5,B,5:U7?Ap2Fp>q1GK7WD08DhuJ0QDl4U@40000000R1pJ56<@`07DRCp11H2PC,0*58
!AIVDM,2,2,5,B,QBDSh000000,2*7E
$ERRPM,E,0,562.00,,A*5F
$MXPGN,01F205,2872,00000AAB00000000*6D
$MXPGN,01FF0D,780B,FF03000098900560*60
$VDVBW,0.00,,A,,,A,,A,,A*4F
$AGRSA,1.43,A,,V*49
$MXPGN,01F803,281C,000BB80002579FC4*64
$MXPGN,01FE10,2872,0000000000000000*6C
$GPHDT,76.78,T*3B
$TIROT,-2.79,A*2A
$ERRPM,E,0,570.00,,A*5C
$MXPGN,01F205,2872,00000AAB00000000*6D
$VDVBW,0.00,,A,,,A,,A,,A*4F
$AGRSA,1.43,A,,V*49
$MXPGN,01F803,281C,0004AF0002573BC9*6C
$MXPGN,01F804,281C,0000003412C13BC9*1E
$MXPGN,00FF00,280B,0002000005049913*19
$GPHDT,76.71,T*32
$TIROT,-2.79,A*2A
$ERRPM,E,0,567.00,,A*5A
$MXPGN,01F205,2872,00000AAB00000000*6D
$AGRSA,1.49,A,,V*43
$MXPGN,01F803,281C,0004AF00025750CA*60
$MXPGN,01F804,281C,0000003213C150CA*15
$MXPGN,01FF2C,7808,FFFFFFFF9F411760*6D
$MXPGN,01FE10,2872,0000000000000000*6C
$MXPGN,01FF2C,7808,FFFF7FFFFFFF7F61*10
$MXPGN,01FF2C,7808,FF7FFFFFFFFFFF62*62
$GPHDT,76.66,T*34
$TIROT,-4.19,A*2A
$MXPGN,01FF2C,7808,FFFFFFFF7FFFFF63*63
$ERRPM,E,0,576.00,,A*5A
$MXPGN,01F205,2872,00000AAB00000000*6D
$MXPGN,00FF3D,6808,7FFFFF0DFFFF9F41*6E
$AGRSA,1.49,A,,V*43
$MXPGN,01F803,281C,0004AF00025750CA*60
$MXPGN,01F804,281C,0000003213C150CA*15
$GPHDT,76.66,T*34
$TIROT,-4.19,A*2A
$ERRPM,E,0,575.00,,A*59
$MXPGN,01F205,2872,00000AAB00000000*6D
!AIVDM,1,1,,B,1:U8U8PP00LrC5=jqoA=Ngwp0t2M,0*46
$MXPGN,00FF00,280B,0002000005049913*19
$GPGGA,,21444.9018,N,21444.90188,E,1,,,,M,,M,,*54
$GPGLL,21444.9018,N,21444.90188,E,,A,A*4F
$GPVTG,,T,,M,,N,,K,A*23
$AGRSA,1.54,A,,V*4F
$MXPGN,01F803,281C,00070800025778CC*64
$MXPGN,01F804,281C,00000033E1C178CC*6A
$MXPGN,01FE10,2872,0000000000000000*6C
$GPGGA,124712.000,2254.71910,S,04309.53931,W,1,12,0.60,-2.94,M,-5.60,M,,*55
$GPGLL,2254.71910,S,04309.53931,W,124712.000,A,A*59
$GPRMC,124712.000,A,2254.71910,S,04309.53931,W,1.88,77.39,030523,23.32,W,A*2B
$GPVTG,77.39,T,,M,1.88,N,3.48,K,A*09
$GPHDT,76.67,T*35
$TIROT,-3.49,A*28
$ERRPM,E,0,584.00,,A*57
$MXPGN,01F205,2872,00000AAB00000000*6D
$MXPGN,00FF19,7808,0000000202009F41*15
$MXPGN,00FF19,7808,0080000A0A009F41*1D
$AGRSA,1.54,A,,V*4F
$GPZDA,124711.270,03,05,2023,,*56
$MXPGN,01F803,281C,00095F0002578CCD*62
$MXPGN,01F804,281C,00000033E1C18CCD*19
!AIVDO,1,1,,,B:UOH3P3wk?8mP=18D3Q3wwUkP06,0*70
$GPGSA,A,3,01,03,04,08,16,21,26,28,66,82,76,81,1.30,1.20,1.20*06
$GPGSV,3,1,12,01,62,233,45,03,30,216,33,04,32,278,38,08,12,337,42*72
$GPGSV,3,2,12,16,04,026,36,21,72,323,41,26,14,057,36,28,35,129,40*7C
$GPGSV,3,3,12,66,18,136,44,82,54,262,37,76,18,124,45,81,40,342,40*7C
$MXPGN,00FF8C,6808,FFF107147AD89F41*18
$MXPGN,00FF3C,3808,8000F8FE00009F41*1C
$GPHDT,77.08,T*3D
$TIROT,5.69,A*01
$ERRPM,E,0,570.00,,A*5C
$MXPGN,01F205,2872,00000AAB00000000*6D
$AGRSA,1.54,A,,V*4F
$MXPGN,01F803,281C,0004AF0000003CD2*61
$MXPGN,01F804,281C,0000003941C13CD2*18
$MXPGN,01FE10,2872,0000000000000000*6C
$GPHDT,77.15,T*31
$TIROT,10.79,A*34
$ERRPM,E,0,567.00,,A*5A
$MXPGN,01F205,2872,00000AAB00000000*6D
$VDVBW,0.00,,A,,,A,,A,,A*4F
$AGRSA,1.54,A,,V*4F
!AIVDM,2,1,6,A,5:U7?Ap2Fp>q1GK7WD08DhuJ0QDl4U@40000000R1pJ56<@`07DRCp11H2PC,0*58
!AIVDM,2,2,6,A,QBDSh000000,2*7E
$MXPGN,01F803,281C,00070800000050D3*19
$MXPGN,01F804,281C,0000003941C150D3*6C
$MXPGN,00FF00,280B,0002000005049913*19
$GPHDT,77.22,T*35
$TIROT,10.79,A*34
$ERRPM,E,0,570.00,,A*5C
$MXPGN,01F205,2872,00000AAB00000000*6D
!AIVDM,1,1,,A,1:UUFl001;LrMW5jqV?6H58J0@7S,0*43
$AGRSA,0.88,A,,V*4F
$MXPGN,01F803,281C,00095F00000064D4*6C
$MXPGN,01F804,281C,000000386EC164D4*1B
$MXPGN,01FF2C,7808,FFFFFFFF9F411780*63
$MXPGN,01FE10,2872,0000000000000000*6C
$MXPGN,01FF2C,7808,FFFF7FFFFFFF7F81*1E
$MXPGN,01FF2C,7808,FF7FFFFFFFFFFF82*6C
$GPHDT,77.26,T*31
$TIROT,14.69,A*31
$MXPGN,01FF2C,7808,FFFFFFFF7FFFFF83*6D
$ERRPM,E,0,568.00,,A*55
$MXPGN,01F205,2872,00000AAB00000000*6D
$MXPGN,00FF3D,6808,7FFFFF0DFFFF9F41*6E
$MXPGN,00FF3D,6808,0000FF0BFFFF9F41*19
$AGRSA,0.88,A,,V*4F
$MXPGN,00FF3D,6808,FFFFFF0CFFFF9F41*18
$MXPGN,01F803,281C,00095F00000064D4*6C
$MXPGN,01F804,281C,000000386EC164D4*1B
$MXPGN,00FF3D,6808,FFFFFF03FFFF9F41*68
$GPHDT,77.31,T*37
$TIROT,14.69,A*31
$ERRPM,E,0,576.00,,A*5A
$MXPGN,01F205,2872,00000AAB00000000*6D
$MXPGN,00FF3D,6808,FFFFFF02FFFF9F41*69
$MXPGN,00FF00,280B,0002000005049913*19
$GPGGA,,21444.9018,N,21444.90188,E,1,,,,M,,M,,*54
$GPGLL,21444.9018,N,21444.90188,E,,A,A*4F
$GPVTG,,T,,M,,N,,K,A*23
$AGRSA,-1.68,A,,V*6D
$MXPGN,01F803,281C,000BB80000008CD6*65
$MXPGN,01F804,281C,0000003559C18CD6*12
$MXPGN,01FE10,2872,0000000000000000*6C
$GPGGA,124713.000,2254.71892,S,04309.53862,W,1,12,0.60,-2.75,M,-5.60,M,,*57
$GPGLL,2254.71892,S,04309.53862,W,124713.000,A,A*54
$GPRMC,124713.000,A,2254.71892,S,04309.53862,W,2.09,81.39,030523,23.32,W,A*25
$GPVTG,81.39,T,,M,2.09,N,3.87,K,A*09
$GPHDT,77.36,T*30
$TIROT,16.49,A*31
$ERRPM,E,0,573.00,,A*5F
$MXPGN,01F205,2872,00000AAB00000000*6D
$GPGSA,A,,,,,,,,,,,,,,,,*2F
$MXPGN,01FF1A,680B,FF022B849F4105A0*1D
!AIVDM,1,1,,A,1:U8M80P00trUdqjqV7I3?vL287w,0*5C
$MXPGN,01FE10,2872,0000000000000000*6C
$GPHDT,77.43,T*32
$TIROT,16.49,A*31
$ERRPM,E,0,576.00,,A*5A
$MXPGN,01F205,2872,00000AAB00000000*6D
$MXPGN,00FF00,280B,0002000005049913*19
!AIVDM,1,1,,A,1:U73SP000trW41jr4ab31tF2<2M,0*75
$AGRSA,-9.85,A,,V*66
$MXPGN,01FF1A,782B,FF010B049F4105A0*17
$MXPGN,01F803,281C,0004B000025829DA*13
$MXPGN,01F804,281C,00000033B8C129DA*65
$GPHDT,77.40,T*31
$TIROT,14.69,A*31
$ERRPM,E,0,579.00,,A*55
$MXPGN,01F205,2872,00000AAB00000000*6D
$AGRSA,-10.76,A,,V*52
$MXPGN,01F803,281C,00070800025850DC*66
$MXPGN,01F804,281C,000000318BC150DC*6B
$MXPGN,01FE10,2872,0000000000000000*6C
$GPHDT,77.37,T*31
$TIROT,13.29,A*32
$ERRPM,E,0,568.00,,A*55
$MXPGN,01F205,2872,00000AAB00000000*6D
!AIVDM,2,1,7,B,5:U7?Ap2Fp>q1GK7WD08DhuJ0QDl4U@40000000R1pJ56<@`07DRCp11H2PC,0*5A
!AIVDM,2,2,7,B,QBDSh000000,2*7C
$VDVBW,0.00,,A,,,A,,A,,A*4F
$AGRSA,-10.76,A,,V*52
$MXPGN,01F803,281C,00096000025864DD*66
$MXPGN,01F804,281C,000000318BC164DD*6B
$MXPGN,00FF00,280B,0002000005049913*19
$GPHDT,77.39,T*3F
$TIROT,13.29,A*32
$ERRPM,E,0,581.00,,A*52
$MXPGN,01F205,2872,00000AAB00000000*6D
$AGRSA,-10.58,A,,V*5E
$MXPGN,01F803,281C,0009600004B078DE*13
$MXPGN,01F804,281C,00000031F5C178DE*6E
$MXPGN,01FE10,2872,0000000000000000*6C
$MXPGN,01FF2C,7808,FFFFFFFF9F4117A0*1A
$MXPGN,01FF2C,7808,FFFF7FFFFFFF7FA1*67
$MXPGN,01FF2C,7808,FF7FFFFFFFFFFFA2*15
$ERRPM,E,0,572.00,,A*5E
$GPHDT,77.42,T*33
$TIROT,12.49,A*35
$MXPGN,01F205,2872,00000AAB00000000*6D
$MXPGN,01FF2C,7808,FFFFFFFF7FFFFFA3*14
$MXPGN,00FF3D,6808,7FFFFF0DFFFF9F41*6E
$AGRSA,-10.58,A,,V*5E
$MXPGN,01F803,281C,000BB80004B08DDF*64
$MXPGN,01F804,281C,00000031F5C18DDF*1E
$ERRPM,E,0,584.00,,A*57
$GPHDT,77.46,T*37
$TIROT,12.49,A*35
$MXPGN,01F205,2872,00000AAB00000000*6D
$MXPGN,00FF00,280B,0002000005049913*19
$GPGGA,,21444.9018,N,21444.90188,E,1,,,,M,,M,,*54
$GPGLL,21444.9018,N,21444.90188,E,,A,A*4F
$GPVTG,,T,,M,,N,,K,A*23
$AGRSA,-10.45,A,,V*52
$MXPGN,01F803,281C,000BB80004B0A0E0*1E
$MXPGN,01F804,281C,00000033DCC1A0E0*12
$GPHDT,77.42,T*33
$TIROT,9.59,A*0E
$VWVHW,,T,,M,0.00,N,0.00,K*54
$ERRPM,E,0,570.00,,A*5C
$MXPGN,01F205,2872,00000AAB00000000*6D
$GPGSA,A,3,01,03,04,08,09,10,16,21,26,28,,,1.36,1.10,1.10*0A
$GPGSV,3,1,10,01,62,232,48,03,30,215,47,04,32,277,47,08,11,336,42*79
$GPGSV,3,2,10,09,03,290,37,10,02,075,41,16,04,026,37,21,71,322,47*7E
$GPGSV,3,3,10,26,13,057,41,28,35,129,46*7D
$MXPGN,01FA06,681C,6D008300C8E40F80*11
$MXPGN,01FA06,681C,007800791D230081*60
$MXPGN,01FA06,681C,FFFFFFFFFF00ED82*17
$GPGGA,124714.500,2254.71839,S,04309.53869,W,1,10,1.10,-4.19,M,-5.00,M,,*51
$GPGLL,2254.71839,S,04309.53869,W,124714.500,A,A*5C
$GPRMC,124714.500,A,2254.71839,S,04309.53869,W,2.09,79.87,030523,23.41,W,A*2B
$GPVTG,79.87,T,,M,2.09,N,3.87,K,A*0B
$AGRSA,-10.21,A,,V*50
$MXPGN,01F803,281C,00000000000000E4*15
$MXPGN,01F804,281C,0000003675C100E4*67
$GPGSA,A,,,,,,,,,,,,,,,,*2F
$MXPGN,01FE10,2872,0000000000000000*6C
$GPHDT,77.38,T*3E
$TIROT,7.29,A*07
$ERRPM,E,0,577.00,,A*5B
$MXPGN,01F205,2872,00000AAB00000000*6D
$MXPGN,00FF00,280B,0002000005049913*19
$AGRSA,-10.21,A,,V*50
$MXPGN,01FF1A,680B,FF022B849F4105C0*1F
$MXPGN,01F803,281C,00025800025714E5*1E
$MXPGN,01F804,281C,0000003685C114E5*6C
$MXPGN,01FF1A,782B,FF010B049F4105C0*15
$GPHDT,77.36,T*30
$TIROT,7.29,A*07
$ERRPM,E,0,563.00,,A*5E
$MXPGN,01F205,2872,00000AAB00000000*6D
$AGRSA,-9.37,A,,V*6F
$MXPGN,01F803,281C,00025800025728E6*12
$MXPGN,01F804,281C,0000003685C128E6*60
$MXPGN,01FE10,2872,0000000000000000*6C
$GPHDT,77.32,T*34
$TIROT,4.79,A*01
$ERRPM,E,0,519.00,,A*53
$MXPGN,01F205,2872,00000AAB00000000*6D
$VDVBW,0.00,,A,,,A,,A,,A*4F
$AGRSA,-9.37,A,,V*6F
$MXPGN,01F803,281C,0004AF0002573BE7*64
$MXPGN,01F804,281C,0000003685C13BE7*1A
$MXPGN,00FF1E,5872,00FFDC95AF809890*10
$GPHDT,77.29,T*3E
$TIROT,4.79,A*01
$ERRPM,E,0,586.00,,A*55
$MXPGN,01F205,2872,00000AAB00000000*6D
$MXPGN,00FF00,280B,0002000005049913*19
$AGRSA,-7.98,A,,V*64
$MXPGN,01F803,281C,00070800025750E8*13
$MXPGN,01F804,281C,000000359DC150E8*12
$MXPGN,01FF2C,7808,FFFFFFFF9F4117C0*18
$MXPGN,01FE10,2872,0000000000000000*6C
$MXPGN,01FF2C,7808,FFFF7FFFFFFF7FC1*65
$MXPGN,01FF2C,7808,FF7FFFFFFFFFFFC2*17
$GPHDT,77.25,T*32
$TIROT,2.59,A*05
$MXPGN,01FF2C,7808,FFFFFFFF7FFFFFC3*16
$ERRPM,E,0,549.00,,A*56
$MXPGN,01F803,281C,000BB80002578CEB*10
$MXPGN,01F804,281C,000000346BC18CEB*1E
$MXPGN,01FE10,2872,0000000000000000*6C
$MXPGN,00FF16,7808,FF0000002B0A9F41*1B
$GPHDT,77.22,T*35
$TIROT,1.89,A*0B
$ERRPM,E,0,566.00,,A*5B
$MXPGN,01F205,2872,00000AAB00000000*6D
$MXPGN,00FF00,280B,0002000005049913*19
$AGRSA,-7.73,A,,V*61
$SDDPT,6.57,0.00,*7F
!AIVDM,2,1,9,B,5:U7?Ap2Fp>q1GK7WD08DhuJ0QDl4U@40000000R1pJ56<@`07DRCp11H2PC,0*54
!AIVDM,2,2,9,B,QBDSh000000,2*72
$MXPGN,01FF1A,782B,FFFAFF859F4105E0*6E
$MXPGN,01F803,281C,000E100004AFB4ED*64
$MXPGN,01F804,281C,00000033ECC1B4ED*60
$GPHDT,77.22,T*35
$TIROT,1.99,A*0A
$VWVHW,,T,,M,0.00,N,0.00,K*54
$ERRPM,E,0,580.00,,A*53
$MXPGN,01F205,2872,00000AAB00000000*6D
$GPGSA,A,3,01,03,04,08,09,10,16,21,26,28,,,1.36,1.10,1.10*0A
$GPGSV,3,1,10,01,62,232,48,03,30,215,46,04,32,277,46,08,11,336,43*78
$GPGSV,3,2,10,09,03,290,38,10,02,075,39,16,04,026,38,21,71,322,46*70
$GPGSV,3,3,10,26,13,057,41,28,35,129,46*7D
$MXPGN,01FA06,681C,6D008300C8EE0FA0*19
$MXPGN,01FA06,681C,007800791D2900A1*13
$MXPGN,01FA06,681C,FFFFFFFFFF00EDA2*6E
$GPGGA,124715.500,2254.71820,S,04309.53799,W,1,10,1.10,-4.19,M,-5.00,M,,*58
$GPGLL,2254.71820,S,04309.53799,W,124715.500,A,A*55
$GPRMC,124715.500,A,2254.71820,S,04309.53799,W,2.37,76.88,030523,23.41,W,A*2F
$GPVTG,76.88,T,,M,2.37,N,4.38,K,A*05
$AGRSA,-7.67,A,,V*64
$MXPGN,01F803,281C,00000000000000EE*64
$MXPGN,01F804,281C,00000033ECC100EE*17
$GPGSA,A,,,,,,,,,,,,,,,,*2F
$MXPGN,01FF1A,680B,FF022B849F4105E0*19
$MXPGN,01FE10,2872,0000000000000000*6C
$GPHDT,77.21,T*36
$TIROT,2.39,A*03
$ERRPM,E,0,589.00,,A*5A
$MXPGN,01F205,2872,00000AAB00000000*6D
$MXPGN,01FF1A,782B,FF010B049F4105E0*13
$AGRSA,-7.67,A,,V*64
$MXPGN,00FF00,280B,0002000005049913*19
$MXPGN,01F803,281C,00000000000014EF*62
$MXPGN,01F804,281C,0000003424C114EF*16
$GPHDT,77.17,T*33
$TIROT,2.39,A*03
$ERRPM,E,0,596.00,,A*54
$MXPGN,01F205,2872,00000AAB00000000*6D
$AGRSA,-7.62,A,,V*61
$MXPGN,01F803,281C,00025800000028F0*17
$MXPGN,01F804,281C,0000003424C128F0*6C
$MXPGN,01FE10,2872,0000000000000000*6C
$GPHDT,77.13,T*37
$TIROT,2.59,A*05
$ERRPM,E,0,595.00,,A*57
$MXPGN,01F205,2872,00000AAB00000000*6D
$VDVBW,0.00,,A,,,A,,A,,A*4F
$AGRSA,-7.62,A,,V*61
$MXPGN,01F803,281C,0002580000003BF1*6D
$MXPGN,01F804,281C,0000003424C13BF1*16
!AIVDM,1,1,,A,1:U8;A`P2itrKqEjq<6miOvN25Rt,0*6B
$MXPGN,01F803,281C,0009600000008CF5*63
$MXPGN,01F804,281C,0000633605C18CF5*1C
!AIVDM,1,1,,B,1:U8?kPP1`LrIe=jqDnC5Owp0`9T,0*5B
$MXPGN,00FF8C,6808,FFF107147AD89F41*18
$MXPGN,00FF3C,3808,8000F8FE00009F41*1C
$GPGSA,A,3,01,03,04,08,16,21,26,28,66,82,76,81,1.30,1.20,1.20*06
$GPGSV,3,1,12,01,62,233,45,03,30,216,38,04,32,278,38,08,12,337,42*79
$GPGSV,3,2,12,16,04,026,36,21,72,323,40,26,14,057,38,28,35,129,40*73
$GPGSV,3,3,12,66,18,136,44,82,54,262,38,76,18,124,45,81,40,342,40*73
$GPHDT,77.09,T*3C
$TIROT,2.09,A*00
$ERRPM,E,0,569.00,,A*54
$MXPGN,01F205,2872,00000AAB00000000*6D
$MXPGN,01FF0D,780B,FF03000098900500*66
!AIVDO,1,1,,,B:UOH3P3wk?8mP=18D3Q3wwUkP06,0*70
$VDVBW,0.00,,A,,,A,,A,,A*4F
$AGRSA,-7.12,A,,V*66
$MXPGN,01F803,281C,000BB80002579FF6*63
$MXPGN,01F804,281C,0000633605C19FF6*1B
$MXPGN,00FF16,7808,FF0000002B0A9F41*1B
$MXPGN,01FE10,2872,0000000000000000*6C
$GPHDT,77.12,T*36
$TIROT,1.89,A*0B
!AIVDM,1,1,,B,1:UQ9B0000LrSAMjrPE9<pFR0@9W,0*42
$ERRPM,E,0,570.00,,A*5C
$MXPGN,01F205,2872,00000AAB00000000*6D
$MXPGN,00FF00,280B,0002000005049913*19
$AGRSA,-7.12,A,,V*66
$SDDPT,6.60,0.00,*7B
$MXPGN,01F803,281C,000BB8000257B4F7*6B
$MXPGN,01F804,281C,00006336A4C1B4F7*63
$GPHDT,77.12,T*36
$TIROT,1.89,A*0B
$VWVHW,,T,,M,0.00,N,0.00,K*54
$ERRPM,E,0,554.00,,A*5A
$MXPGN,01F205,2872,00000AAB00000000*6D
$GPGSA,A,3,01,03,04,08,09,10,16,21,26,28,,,1.36,1.10,1.10*0A
$GPGSV,3,1,10,01,62,232,48,03,30,215,45,04,32,277,47,08,11,336,43*7A
$GPGSV,3,2,10,09,03,290,38,10,02,075,40,16,04,026,38,21,71,322,47*7F
$GPGSV,3,3,10,26,13,057,41,28,35,129,47*7C
$MXPGN,01FA06,681C,6D008300C8F80FC0*65
$MXPGN,01FA06,681C,007800791D2900C1*11
$MXPGN,01FA06,681C,FFFFFFFFFF00EDC2*6C
$GPGGA,124716.500,2254.71809,S,04309.53739,W,1,10,1.10,-4.06,M,-5.00,M,,*54
$GPGLL,2254.71809,S,04309.53739,W,124716.500,A,A*57
$GPRMC,124716.500,A,2254.71809,S,04309.53739,W,2.25,80.14,030523,23.41,W,A*22
$GPVTG,80.14,T,,M,2.25,N,4.16,K,A*06
$AGRSA,-7.12,A,,V*66
$MXPGN,01F803,281C,00000000000000F8*1A
$MXPGN,01F804,281C,00000036A4C100F8*1F
$GPGSA,A,,,,,,,,,,,,,,,,*2F
$MXPGN,01FE10,2872,0000000000000000*6C
$GPHDT,77.11,T*35
$TIROT,0.99,A*0B
$ERRPM,E,0,568.00,,A*55
$MXPGN,01F205,2872,00000AAB00000000*6D
$MXPGN,01FF1A,680B,FF022B849F410500*6C
$AGRSA,-7.12,A,,V*66
!AIVDM,1,1,,A,16:>J;?P00LrEN=jr9:upOvR089j,0*1D
$MXPGN,00FF00,280B,0002000005049913*19
$MXPGN,01FF1A,782B,FF010B049F410500*66
$MXPGN,01F803,281C,00025700000014F9*1E
$MXPGN,01F804,281C,0000003698C114F9*6F
$GPHDT,77.08,T*3D
$MXPGN,00FF00,280B,0002000005049913*19
$MXPGN,01F803,281C,00095F0000007803*12
$MXPGN,01F804,281C,000000346BC17803*6E
$MXPGN,01FE10,2872,0000000000000000*6C
$GPHDT,76.74,T*37
$TIROT,-9.89,A*2E
$ERRPM,E,0,591.00,,A*53
$MXPGN,01F205,2872,00000AAB00000000*6D
$MXPGN,00FF19,7808,0000000202009F41*15
$MXPGN,00FF19,7808,0080000A0A009F41*1D
$AGRSA,-6.89,A,,V*65
$GPZDA,124716.210,03,05,2023,,*57
$MXPGN,01F803,281C,00095F0002578C04*61
$MXPGN,01F804,281C,000000346BC18C04*1D
$MXPGN,00FF8C,6808,FFF107147AD89F41*18
$MXPGN,00FF3C,3808,8000F8FE00009F41*1C
$GPGSA,A,3,01,03,04,08,16,21,26,28,66,82,76,81,1.30,1.20,1.20*06
$GPGSV,3,1,12,01,62,233,45,03,30,216,38,04,32,278,38,08,12,337,42*79
$GPGSV,3,2,12,16,04,026,36,21,72,323,40,26,14,057,39,28,35,129,40*72
$GPGSV,3,3,12,66,18,136,44,82,54,262,38,76,18,124,45,81,40,342,39*7D
$GPHDT,76.66,T*34
$TIROT,-9.89,A*2E
$ERRPM,E,0,577.00,,A*5B
$MXPGN,01F205,2872,00000AAB00000000*6D
$MXPGN,01FF0D,780B,FF03000098900520*64
$VDVBW,0.00,,A,,,A,,A,,A*4F
$AGRSA,-6.83,A,,V*6F
$MXPGN,01F803,281C,000BB80002579F05*16
$MXPGN,01F804,281C,000000346BC19F05*18
$MXPGN,00FF16,7808,FF0000002B0A9F41*1B
$MXPGN,01FE10,2872,0000000000000000*6C
$GPHDT,76.59,T*38
$TIROT,-13.69,A*1B
$ERRPM,E,0,588.00,,A*5B
$MXPGN,01F205,2872,00000AAB00000000*6D
$MXPGN,00FF00,280B,0002000005049913*19
$AGRSA,-6.83,A,,V*6F
$SDDPT,6.64,0.00,*7F
$MXPGN,01F803,281C,000E0F000257B406*17
$MXPGN,01F804,281C,0000003451C1B406*62
$GPHDT,76.52,T*33
$TIROT,-13.69,A*1B
$VWVHW,,T,,M,0.00,N,0.00,K*54
$ERRPM,E,0,577.00,,A*5B
$MXPGN,01F205,2872,00000AAB00000000*6D
$GPGSA,A,3,01,03,04,08,09,10,16,21,26,28,,,1.36,1.10,1.10*0A
$GPGSV,3,1,10,01,62,232,48,03,30,215,45,04,32,277,47,08,11,336,42*7B
$GPGSV,3,2,10,09,03,290,37,10,02,075,41,16,04,026,38,21,71,322,47*71
$GPGSV,3,3,10,26,13,057,41,28,35,129,47*7C
$MXPGN,01FA06,681C,6D008300C8070FE0*1A
$MXPGN,01FA06,681C,007800791D2900E1*17
$MXPGN,01FA06,681C,FFFFFFFFFF00EDE2*6A
$GPGGA,124717.500,2254.71799,S,04309.53670,W,1,10,1.10,-4.06,M,-5.00,M,,*5F
$GPGLL,2254.71799,S,04309.53670,W,124717.500,A,A*5C
$GPRMC,124717.500,A,2254.71799,S,04309.53670,W,2.06,76.73,030523,23.41,W,A*20
$GPVTG,76.73,T,,M,2.06,N,3.81,K,A*06
$AGRSA,-6.77,A,,V*64
$MXPGN,01F803,281C,0000000000000007*63
$MXPGN,01F804,281C,0000003451C10007*15
$GPGSA,A,,,,,,,,,,,,,,,,*2F
$MXPGN,01FF1A,680B,FF022B849F410520*6E
$MXPGN,01FE10,2872,0000000000000000*6C
$GPHDT,76.48,T*38
$TIROT,-16.39,A*1B
$MXPGN,00FF3D,6808,FFFFFF0CFFFF9F41*18
$MXPGN,01F803,281C,000708000000500B*1C
$MXPGN,01F804,281C,0000633748C1500B*6B
$MXPGN,00FF3D,6808,FFFFFF03FFFF9F41*68
$GPHDT,76.14,T*31
$TIROT,-19.09,A*17
$ERRPM,E,0,573.00,,A*5F
$MXPGN,01F205,2872,00000AAB00000000*6D
$MXPGN,00FF3D,6808,FFFFFF02FFFF9F41*69
$GPGGA,124718.000,2254.71826,S,04309.53574,W,1,12,0.60,-2.75,M,-5.60,M,,*59
$GPGLL,2254.71826,S,04309.53574,W,124718.000,A,A*5A
$GPRMC,124718.000,A,2254.71826,S,04309.53574,W,2.09,80.99,030523,23.32,W,A*20
$GPVTG,80.99,T,,M,2.09,N,3.87,K,A*02
$GPGGA,,21444.9018,N,21444.90188,E,1,,,,M,,M,,*54
$GPGLL,21444.9018,N,21444.90188,E,,A,A*4F
$GPVTG,,T,,M,,N,,K,A*23
$AGRSA,-6.71,A,,V*62
$MXPGN,00FF00,280B,0002000005049913*19
$MXPGN,01F803,281C,000960000000780D*10
$MXPGN,01F804,281C,0000633782C1780D*61
$MXPGN,01FE10,2872,0000000000000000*6C
$GPHDT,76.11,T*34
$TIROT,-18.29,A*14
$ERRPM,E,0,579.00,,A*55
$MXPGN,01F205,2872,00000AAB00000000*6D
$MXPGN,00FF19,7808,0000000202009F41*15
$MXPGN,00FF19,7808,0080000A0A009F41*1D
$AGRSA,-6.71,A,,V*62
$GPZDA,124717.210,03,05,2023,,*56
$MXPGN,01F803,281C,000BB80000008C0E*62
$MXPGN,01F804,281C,0000633782C18C0E*14
$MXPGN,00FF8C,6808,FFF107147AD89F41*18
$MXPGN,00FF3C,3808,8000F8FE00009F41*1C
$GPGSA,A,3,01,03,04,08,16,21,26,28,66,82,76,81,1.30,1.20,1.20*06
$GPGSV,3,1,12,01,62,233,45,03,30,216,38,04,33,278,38,08,12,337,42*78
$GPGSV,3,2,12,16,04,026,36,21,72,323,40,26,14,057,39,28,35,129,40*72
$GPGSV,3,3,12,66,18,136,44,82,54,262,38,76,18,124,45,81,39,342,39*73
$GPHDT,76.09,T*3D
$TIROT,-18.29,A*14
$ERRPM,E,0,568.00,,A*55
$MXPGN,01F205,2872,00000AAB00000000*6D
$MXPGN,01FF0D,780B,FF03000098900540*62
$VDVBW,0.00,,A,,,A,,A,,A*4F
$AGRSA,-6.65,A,,V*67
!AIVDO,1,1,,,B:UOH3P3wk?8mP=18D3Q3wwUkP06,0*70
$MXPGN,01F803,281C,000BB80000008C0E*62
$MXPGN,01F804,281C,0000633782C18C0E*14
$MXPGN,00FF16,7808,FF0000002B0A9F41*1B
$MXPGN,01FE10,2872,0000000000000000*6C
$GPHDT,76.09,T*3D
$TIROT,-18.29,A*14
$ERRPM,E,0,576.00,,A*5A
$MXPGN,01F205,2872,00000AAB00000000*6D
$MXPGN,00FF00,280B,0002000005049913*19
$AGRSA,-6.65,A,,V*67
$SDDPT,6.68,0.00,*73
$MXPGN,01FF1A,782B,FFFAFF859F410540*1F
$MXPGN,01F803,281C,000E10000258B410*68
$MXPGN,01F804,281C,000063387AC1B410*1E
$GPHDT,76.03,T*37
$TIROT,-17.89,A*11
$VWVHW,,T,,M,0.00,N,0.00,K*54
$ERRPM,E,0,577.00,,A*5B
$MXPGN,01F205,2872,00000AAB00000000*6D
$MXPGN,01F803,281C,0004AF0000005015*66
$MXPGN,01F804,281C,000000361EC15015*61
$MXPGN,01FF2C,7808,FFFFFFFF9F411740*6F
$MXPGN,01FE10,2872,0000000000000000*6C
$MXPGN,01FF2C,7808,FFFF7FFFFFFF7F41*12
$MXPGN,01FF2C,7808,FF7FFFFFFFFFFF42*60
$GPHDT,75.78,T*38
$TIROT,-22.99,A*16
$MXPGN,01FF2C,7808,FFFFFFFF7FFFFF43*61
$ERRPM,E,0,580.00,,A*53
$MXPGN,01F205,2872,00000AAB00000000*6D
$MXPGN,00FF3D,6808,7FFFFF0DFFFF9F41*6E
!AIVDM,2,1,1,A,5:U7?Ap2Fp>q1GK7WD08DhuJ0QDl4U@40000000R1pJ56<@`07DRCp11H2PC,0*5F
!AIVDM,2,2,1,A,QBDSh000000,2*79
$AGRSA,-6.58,A,,V*69
$MXPGN,01F803,281C,0004AF0000005015*66
$MXPGN,01F804,281C,000000361EC15015*61
$GPHDT,75.69,T*38
$TIROT,-22.99,A*16
$ERRPM,E,0,578.00,,A*54
$MXPGN,01F205,2872,00000AAB00000000*6D
$GPGGA,124719.000,2254.71800,S,04309.53500,W,1,12,0.60,-2.75,M,-5.60,M,,*5F
$GPGLL,2254.71800,S,04309.53500,W,124719.000,A,A*5C
$GPRMC,124719.000,A,2254.71800,S,04309.53500,W,2.29,78.19,030523,23.32,W,A*2B
$GPVTG,78.19,T,,M,2.29,N,4.24,K,A*01
$GPGGA,,21444.9018,N,21444.90188,E,1,,,,M,,M,,*54
$GPGLL,21444.9018,N,21444.90188,E,,A,A*4F
$GPVTG,,T,,M,,N,,K,A*23
$AGRSA,-6.52,A,,V*63
$MXPGN,00FF00,280B,0002000005049913*19
$MXPGN,01F803,281C,00095F0000007817*17
$MXPGN,01F804,281C,000000339DC17817*65
$MXPGN,01FE10,2872,0000000000000000*6C
$GPHDT,75.60,T*31
$TIROT,-25.29,A*1A
$ERRPM,E,0,575.00,,A*59
$MXPGN,01F205,2872,00000AAB00000000*6D
$MXPGN,00FF19,7808,0000000202009F41*15
$MXPGN,00FF19,7808,0080000A0A009F41*1D
$AGRSA,-6.52,A,,V*63
$GPZDA,124718.210,03,05,2023,,*59
$MXPGN,01F803,281C,00095F0000008C18*6C
$MXPGN,01F804,281C,000000339DC18C18*1E
$MXPGN,00FF8C,6808,FFF107147AD89F41*18
$MXPGN,00FF3C,3808,8000F8FE00009F41*1C
$GPGSA,A,3,01,03,04,08,16,21,26,28,66,82,76,81,1.30,1.20,1.20*06
$GPGSV,3,1,12,01,62,233,45,03,30,216,38,04,33,278,37,08,12,337,42*77
$GPGSV,3,2,12,16,04,026,36,21,72,323,40,26,14,057,39,28,35,129,40*72
$GPGSV,3,3,12,66,18,136,44,82,54,262,38,76,18,124,45,81,39,342,40*7D
$GPHDT,75.53,T*31
$TIROT,-25.29,A*1A
$ERRPM,E,0,581.00,,A*52
$MXPGN,01F205,2872,00000AAB00000000*6D
!AIVDM,2,1,2,B,5:U7?Ap2Fp>q1GK7WD08DhuJ0QDl4U@40000000R1pJ56<@`07DRCp11H2PC,0*5F
!AIVDM,2,2,2,B,QBDSh000000,2*79
$MXPGN,01FF0D,780B,FF03000098900560*60
$VDVBW,0.00,,A,,,A,,A,,A*4F
$AGRSA,-6.52,A,,V*63
$MXPGN,01F803,281C,00095F0000008C18*6C
$MXPGN,01F804,281C,000000339DC18C18*1E
!AIVDM,1,1,,B,15COqt0000LrKIEjs00FITi005Rt,0*69
$MXPGN,00FF16,7808,FF0000002B0A9F41*1B
$MXPGN,01FE10,2872,0000000000000000*6C
$GPHDT,75.45,T*36
$VDVBW,0.00,,A,,,A,,A,,A*4F
$AGRSA,-6.46,A,,V*66
$MXPGN,01F803,281C,000708000000641E*1D
$MXPGN,01F804,281C,0000003453C1641E*66
$GPHDT,75.14,T*32
$TIROT,-31.49,A*19
$ERRPM,E,0,552.00,,A*5C
$MXPGN,01F205,2872,00000AAB00000000*6D
$AGRSA,-6.46,A,,V*66
$MXPGN,00FF00,280B,0002000005049913*19
$MXPGN,01F803,281C,000960000000781F*13
$MXPGN,01F804,281C,0000003414C1781F*6B
$MXPGN,01FF2C,7808,FFFFFFFF9F411760*6D
$MXPGN,01FE10,2872,0000000000000000*6C
$MXPGN,01FF2C,7808,FFFF7FFFFFFF7F61*10
$MXPGN,01FF2C,7808,FF7FFFFFFFFFFF62*62
$GPHDT,75.10,T*36
$TIROT,-31.39,A*1E
$MXPGN,01FF2C,7808,FFFFFFFF7FFFFF63*63
$ERRPM,E,0,573.00,,A*5F
$MXPGN,01F205,2872,00000AAB00000000*6D
$MXPGN,00FF3D,6808,7FFFFF0DFFFF9F41*6E
$AGRSA,-6.46,A,,V*66
$MXPGN,01F803,281C,000960000000781F*13
$MXPGN,01F804,281C,0000003414C1781F*6B
$GPHDT,75.04,T*33
$TIROT,-31.39,A*1E
$ERRPM,E,0,563.00,,A*5E
$MXPGN,01F205,2872,00000AAB00000000*6D
$GPGGA,124720.000,2254.71788,S,04309.53443,W,1,12,0.60,-3.08,M,-5.60,M,,*57
$GPGLL,2254.71788,S,04309.53443,W,124720.000,A,A*5F
$GPRMC,124720.000,A,2254.71788,S,04309.53443,W,2.19,78.69,030523,23.32,W,A*2C
$GPVTG,78.69,T,,M,2.19,N,4.05,K,A*06
$GPGGA,,21444.9018,N,21444.90188,E,1,,,,M,,M,,*54
$GPGLL,21444.9018,N,21444.90188,E,,A,A*4F
$GPVTG,,T,,M,,N,,K,A*23
$AGRSA,-6.46,A,,V*66
$MXPGN,01F803,281C,000BB8000257A021*1E
$MXPGN,01F804,281C,000000369FC1A021*19
$MXPGN,01FE10,2872,0000000000000000*6C
$GPHDT,74.99,T*36
$TIROT,-31.29,A*1F
$MXPGN,00FF00,280B,0002000005049913*19
$ERRPM,E,0,575.00,,A*59
$MXPGN,01F205,2872,00000AAB00000000*6D
$MXPGN,00FF19,7808,0000000202009F41*15
$MXPGN,00FF19,7808,0080000A0A009F41*1D
$AGRSA,-6.46,A,,V*66
$GPZDA,124719.230,03,05,2023,,*5A
$MXPGN,01F803,281C,000E10000257B422*66
$MXPGN,01F804,281C,000000369FC1B422*1D
$GPGSA,A,3,01,03,04,08,16,21,26,28,66,82,76,81,1.30,1.20,1.20*06
$GPGSV,3,1,12,01,62,233,46,03,30,216,39,04,33,278,37,08,12,337,42*75
$GPGSV,3,2,12,16,04,026,37,21,72,323,40,26,14,057,39,28,35,129,39*7D
$GPGSV,3,3,12,66,18,136,44,82,54,262,37,76,18,124,45,81,39,342,40*72
$MXPGN,00FF8C,6808,FFF107147AD89F41*18
$MXPGN,00FF3C,3808,8000F8FE00009F41*1C
$GPHDT,74.91,T*3E
$TIROT,-31.29,A*1F
$ERRPM,E,0,575.00,,A*59
$MXPGN,01F205,2872,00000AAB00000000*6D
$MXPGN,01FF0D,780B,FF03000098900580*6E
$VDVBW,0.00,,A,,,A,,A,,A*4F
$AGRSA,-6.40,A,,V*60
$AGRSA,-6.34,A,,V*63
$MXPGN,01F803,281C,0002580000002827*64
$MXPGN,01F804,281C,000000358BC12827*62
$MXPGN,01FE10,2872,0000000000000000*6C
$GPHDT,74.56,T*35
$TIROT,-33.49,A*1B
$ERRPM,E,0,582.00,,A*51
$MXPGN,01F205,2872,00000AAB00000000*6D
$VDVBW,0.00,,A,,,A,,A,,A*4F
$AGRSA,-6.34,A,,V*63
$MXPGN,01F803,281C,0004AF0000003B28*1C
$MXPGN,01F804,281C,000000358BC13B28*16
$GPHDT,74.51,T*32
$TIROT,-33.49,A*1B
$ERRPM,E,0,577.00,,A*5B
$MXPGN,01F205,2872,00000AAB00000000*6D
$AGRSA,-6.22,A,,V*64
$MXPGN,00FF00,280B,0002000005049913*19
$MXPGN,01F803,281C,0007080000005029*65
$MXPGN,01F804,281C,00000034E7C15029*6A
$MXPGN,01FE10,2872,0000000000000000*6C
$MXPGN,01FF2C,7808,FFFFFFFF9F411780*63
$MXPGN,01FF2C,7808,FFFF7FFFFFFF7F81*1E
$MXPGN,01FF2C,7808,FF7FFFFFFFFFFF82*6C
$ERRPM,E,0,571.00,,A*5D
$GPHDT,74.44,T*36
$TIROT,-35.59,A*1C
$MXPGN,01F205,2872,00000AAB00000000*6D
$MXPGN,01FF2C,7808,FFFFFFFF7FFFFF83*6D
$MXPGN,00FF3D,6808,7FFFFF0DFFFF9F41*6E
$AGRSA,-6.22,A,,V*64
$MXPGN,01F803,281C,0007080000005029*65
$MXPGN,01F804,281C,00000034E7C15029*6A
$ERRPM,E,0,563.00,,A*5E
$GPHDT,74.37,T*32
$TIROT,-35.59,A*1C
$MXPGN,01F205,2872,00000AAB00000000*6D
$GPGGA,124721.000,2254.71796,S,04309.53385,W,1,12,0.60,-2.68,M,-5.60,M,,*53
$GPGLL,2254.71796,S,04309.53385,W,124721.000,A,A*5C
$GPRMC,124721.000,A,2254.71796,S,04309.53385,W,2.39,76.69,030523,23.32,W,A*23
$GPVTG,76.69,T,,M,2.39,N,4.42,K,A*09
$GPGGA,,21444.9018,N,21444.90188,E,1,,,,M,,M,,*54
$GPGLL,21444.9018,N,21444.90188,E,,A,A*4F
$GPVTG,,T,,M,,N,,K,A*23
$AGRSA,-5.79,A,,V*69
!AIVDM,1,1,,A,1:U7@rCP0pLrNoujrh7Rngvd0L2R,0*56
$MXPGN,01F803,281C,000960000257782B*14
$MXPGN,01F804,281C,0000003422C1782B*69
$MXPGN,01FE10,2872,0000000000000000*6C
$GPHDT,74.31,T*34
$TIROT,-38.39,A*17
!AIVDM,1,1,,B,B:UFdq000?>ao<LfSR@qkwbWGP06,0*7A
$MXPGN,00FF00,280B,0002000005049913*19
$ERRPM,E,0,570.00,,A*5C
$MXPGN,01F205,2872,00000AAB00000000*6D
$MXPGN,00FF19,7808,0000000202009F41*15
$MXPGN,00FF19,7808,0080000A0A009F41*1D
$AGRSA,-5.79,A,,V*69
$GPZDA,124720.230,03,05,2023,,*50
$MXPGN,01F803,281C,000BB80002578C2C*66
$MXPGN,01F804,281C,0000003422C18C2C*1C
$GPGSA,A,3,01,03,04,08,16,21,26,28,66,82,76,81,1.30,1.20,1.20*06
$GPGSV,3,1,12,01,62,233,45,03,30,216,38,04,33,278,36,08,12,337,42*76
$GPGSV,3,2,12,16,04,026,37,21,72,323,40,26,14,057,41,28,35,129,39*72
$AGRSA,-5.01,A,,V*66
$MXPGN,01F803,281C,0000000000001430*62
$MXPGN,01F804,281C,0000003383C11430*1C
$GPHDT,73.96,T*3E
$TIROT,-43.39,A*1B
$MXPGN,00FF00,280B,0002000005049913*19
$ERRPM,E,0,579.00,,A*55
$MXPGN,01F205,2872,00000AAB00000000*6D
$AGRSA,-4.84,A,,V*6A
!AIVDM,1,1,,B,1:U8;A`P2itrKvEjq;5EsOvb28<i,0*0B
$MXPGN,01F803,281C,0002580000002831*63
$MXPGN,01F804,281C,0000003383C12831*12
$MXPGN,01FE10,2872,0000000000000000*6C
$GPHDT,73.91,T*39
$TIROT,-43.29,A*1A
$ERRPM,E,0,574.00,,A*58
$MXPGN,01F205,2872,00000AAB00000000*6D
$VDVBW,0.00,,A,,,A,,A,,A*4F
$AGRSA,-4.84,A,,V*6A
$MXPGN,01F803,281C,0004B00000003B32*62
$MXPGN,01F804,281C,0000003383C13B32*6A
$GPHDT,73.86,T*3F
$TIROT,-43.29,A*1A
$ERRPM,E,0,570.00,,A*5C
$MXPGN,01F205,2872,00000AAB00000000*6D
$AGRSA,-4.71,A,,V*60
$MXPGN,00FF00,280B,0002000005049913*19
$MXPGN,01F803,281C,0004B00000005033*17
$MXPGN,01F804,281C,00000034F3C15033*66
$MXPGN,01FF2C,7808,FFFFFFFF9F4117A0*1A
$MXPGN,01FE10,2872,0000000000000000*6C
$MXPGN,01FF2C,7808,FFFF7FFFFFFF7FA1*67
$MXPGN,01FF2C,7808,FF7FFFFFFFFFFFA2*15
$GPHDT,73.79,T*3F
$TIROT,-41.59,A*1F
$MXPGN,01FF2C,7808,FFFFFFFF7FFFFFA3*14
$ERRPM,E,0,573.00,,A*5F
$MXPGN,01F205,2872,00000AAB00000000*6D
$MXPGN,00FF3D,6808,7FFFFF0DFFFF9F41*6E
$AGRSA,-4.71,A,,V*60
$MXPGN,01F803,281C,0004B00000005033*17
$MXPGN,01F804,281C,00000034F3C15033*66
$GPHDT,73.79,T*3F
$TIROT,-41.59,A*1F
$ERRPM,E,0,572.00,,A*5E
$MXPGN,01F205,2872,00000AAB00000000*6D
$GPGGA,124722.000,2254.71772,S,04309.53323,W,1,12,0.60,-2.62,M,-5.60,M,,*5C
$GPGLL,2254.71772,S,04309.53323,W,124722.000,A,A*59
$GPRMC,124722.000,A,2254.71772,S,04309.53323,W,1.98,76.09,030523,23.32,W,A*28
$GPVTG,76.09,T,,M,1.98,N,3.66,K,A*06
$GPGGA,,21444.9018,N,21444.90188,E,1,,,,M,,M,,*54
$GPGLL,21444.9018,N,21444.90188,E,,A,A*4F
$GPVTG,,T,,M,,N,,K,A*23
$AGRSA,-4.59,A,,V*6A
$MXPGN,01F803,281C,0009600000007835*62
$MXPGN,01F804,281C,00000035EDC17835*1F
$MXPGN,01FE10,2872,0000000000000000*6C
$GPHDT,73.68,T*3F
$TIROT,-39.69,A*13
$MXPGN,00FF00,280B,0002000005049913*19
$ERRPM,E,0,578.00,,A*54
$MXPGN,01F205,2872,00000AAB00000000*6D
$MXPGN,00FF19,7808,0000000202009F41*15
$MXPGN,00EA06,630B,00EE00*15
$GPGSA,A,3,01,03,04,08,09,10,16,21,26,28,,,1.36,1.10,1.10*0A
$GPGSV,3,1,10,01,62,232,48,03,30,215,46,04,32,277,46,08,11,336,42*79
$GPGSV,3,2,10,09,03,290,38,10,02,075,41,16,04,026,38,21,71,322,47*7E
$GPGSV,3,3,10,26,13,057,42,28,35,129,46*7E
$MXPGN,01FA06,681C,6D008300C8390F80*6A
$MXPGN,01FA06,681C,007800791D360081*64
$MXPGN,01FA06,681C,FFFFFFFFFF00ED82*17
$GPGGA,124722.500,2254.71739,S,04309.53349,W,1,10,1.10,-3.86,M,-5.00,M,,*53
$GPGLL,2254.71739,S,04309.53349,W,124722.500,A,A*5F
